
******2017/1/14 9:28:33******
$GNGGA,012839.000,2253.7220,N,11350.7025,E,1,11,1.5,44.8,M,0.0,M,,*48
$GNGLL,2253.7220,N,11350.7025,E,012839.000,A,A*41
$GPGSA,A,3,05,13,02,30,15,24,,,,,,,2.2,1.5,1.6*35
$BDGSA,A,3,01,03,04,08,12,,,,,,,,2.2,1.5,1.6*2D
$GPGSV,3,1,09,02,42,118,49,05,38,040,47,06,05,128,40,13,74,039,41*78
$GPGSV,3,2,09,15,68,244,26,20,45,324,16,24,15,180,25,29,47,278,21*76
$GPGSV,3,3,09,30,10,055,40*46
$BDGSV,2,1,05,01,49,130,42,03,62,189,42,04,32,111,41,08,65,170,41*6E
$BDGSV,2,2,05,12,46,185,42*56
$GNRMC,012839.000,A,2253.7220,N,11350.7025,E,0.00,0.00,140117,,,A*74
$GNVTG,0.00,T,,M,0.00,N,0.00,K,A*23
$GNZDA,012839.000,14,01,2017,00,00*49
$GPTXT,01,01,01,ANTENNA OK*35
$GNGGA,012840.000,2253.7220,N,11350.7025,E,1,11,1.5,44.8,M,0.0,M,,*46
$GNGLL,2253.7220,N,11350.7025,E,012840.000,A,A*4F
$GPGSA,A,3,05,13,02,30,15,24,,,,,,,2.2,1.5,1.6*35
$BDGSA,A,3,01,03,04,08,12,,,,,,,,2.2,1.5,1.6*2D
$GPGSV,3,1,09,02,42,118,49,05,38,040,48,06,05,128,39,13,74,039,41*79
$GPGSV,3,2,09,15,68,244,26,20,45,324,16,24,15,180,26,29,47,278,21*75
$GPGSV,3,3,09,30,10,055,40*46
$BDGSV,2,1,05,01,49,130,42,03,62,189,42,04,32,111,41,08,65,170,41*6E
$BDGSV,2,2,05,12,46,185,42*56
$GNRMC,012840.000,A,2253.7220,N,11350.7025,E,0.00,0.00,140117,,,A*7A
$GNVTG,0.00,T,,M,0.00,N,0.00,K,A*23
$GNZDA,012840.000,14,01,2017,00,00*47
$GPTXT,01,01,01,ANTENNA OK*35
$GNGGA,012841.000,2253.7220,N,11350.7025,E,1,11,1.5,44.8,M,0.0,M,,*47
$GNGLL,2253.7220,N,11350.7025,E,012841.000,A,A*4E
$GPGSA,A,3,05,13,02,30,15,24,,,,,,,2.2,1.5,1.6*35
$BDGSA,A,3,01,03,04,08,12,,,,,,,,2.2,1.5,1.6*2D
$GPGSV,3,1,09,02,42,118,49,05,38,040,48,06,05,128,39,13,74,039,41*79
$GPGSV,3,2,09,15,68,244,26,20,45,324,16,24,15,180,26,29,47,278,21*75
$GPGSV,3,3,09,30,10,055,40*46
$BDGSV,2,1,05,01,49,130,42,03,62,189,42,04,32,111,41,08,65,170,41*6E
$BDGSV,2,2,05,12,46,185,42*56
$GNRMC,012841.000,A,2253.7220,N,11350.7025,E,0.00,0.00,140117,,,A*7B
$GNVTG,0.00,T,,M,0.00,N,0.00,K,A*23
$GNZDA,012841.000,14,01,2017,00,00*46
$GPTXT,01,01,01,ANTENNA OK*35
$GNGGA,012842.000,2253.7220,N,11350.7025,E,1,11,1.5,44.8,M,0.0,M,,*44
$GNGLL,2253.7220,N,11350.7025,E,012842.000,A,A*4D
$GPGSA,A,3,05,13,02,30,15,24,,,,,,,2.2,1.5,1.6*35
$BDGSA,A,3,01,03,04,08,12,,,,,,,,2.2,1.5,1.6*2D
$GPGSV,3,1,09,02,42,118,49,05,38,040,47,06,05,128,39,13,74,039,42*75
$GPGSV,3,2,09,15,68,244,26,20,45,324,21,24,15,180,26,29,47,278,21*71
$GPGSV,3,3,09,30,10,055,40*46
$BDGSV,2,1,05,01,49,130,42,03,62,189,42,04,32,111,41,08,65,170,41*6E
$BDGSV,2,2,05,12,46,185,42*56
$GNRMC,012842.000,A,2253.7220,N,11350.7025,E,0.00,0.00,140117,,,A*78
$GNVTG,0.00,T,,M,0.00,N,0.00,K,A*23
$GNZDA,012842.000,14,01,2017,00,00*45
$GPTXT,01,01,01,ANTENNA OK*35
$GNGGA,012843.000,2253.7220,N,11350.7025,E,1,11,1.5,44.8,M,0.0,M,,*45
$GNGLL,2253.7220,N,11350.7025,E,012843.000,A,A*4C
$GPGSA,A,3,05,13,02,30,15,24,,,,,,,2.2,1.5,1.6*35
$BDGSA,A,3,01,03,04,08,12,,,,,,,,2.2,1.5,1.6*2D
$GPGSV,3,1,09,02,42,118,49,05,38,040,47,06,05,128,39,13,74,039,42*75
$GPGSV,3,2,09,15,68,244,26,20,45,324,21,24,15,180,26,29,47,278,23*73
$GPGSV,3,3,09,30,10,055,40*46
$BDGSV,2,1,05,01,49,130,42,03,62,189,42,04,32,111,41,08,65,170,40*6F
$BDGSV,2,2,05,12,46,185,42*56
$GNRMC,012843.000,A,2253.7220,N,11350.7025,E,0.00,0.00,140117,,,A*79
$GNVTG,0.00,T,,M,0.00,N,0.00,K,A*23
$GNZDA,012843.000,14,01,2017,00,00*44
$GPTXT,01,01,01,ANTENNA OK*35
$GNGGA,012844.000,2253.7220,N,11350.7025,E,1,11,1.5,44.8,M,0.0,M,,*42
$GNGLL,2253.7220,N,11350.7025,E,012844.000,A,A*4B
$GPGSA,A,3,05,13,02,30,15,24,,,,,,,2.2,1.5,1.6*35
$BDGSA,A,3,01,03,04,08,12,,,,,,,,2.2,1.5,1.6*2D
$GPGSV,3,1,09,02,42,118,49,05,38,040,47,06,05,128,39,13,74,039,41*76
$GPGSV,3,2,09,15,68,244,27,20,45,325,21,24,15,180,28,29,47,278,23*7D
$GPGSV,3,3,09,30,10,055,40*46
$BDGSV,2,1,05,01,49,130,42,03,62,189,42,04,32,111,41,08,65,170,40*6F
$BDGSV,2,2,05,12,46,185,42*56
$GNRMC,012844.000,A,2253.7220,N,11350.7025,E,0.00,0.00,140117,,,A*7E
$GNVTG,0.00,T,,M,0.00,N,0.00,K,A*23
$GNZDA,012844.000,14,01,2017,00,00*43
$GPTXT,01,01,01,ANTENNA OK*35
$GNGGA,012845.000,2253.7220,N,11350.7026,E,1,11,1.5,44.8,M,0.0,M,,*40
$GNGLL,2253.7220,N,11350.7026,E,012845.000,A,A*49
$GPGSA,A,3,05,13,02,30,15,24,,,,,,,2.2,1.5,1.6*35
$BDGSA,A,3,01,03,04,08,12,,,,,,,,2.2,1.5,1.6*2D
$GPGSV,3,1,09,02,42,118,49,05,38,040,47,06,05,128,39,13,74,039,41*76
$GPGSV,3,2,09,15,68,244,30,20,45,325,21,24,15,180,28,29,47,278,23*7B
$GPGSV,3,3,09,30,10,055,40*46
$BDGSV,2,1,05,01,49,130,42,03,62,189,42,04,32,111,41,08,65,170,41*6E
$BDGSV,2,2,05,12,46,185,42*56
$GNRMC,012845.000,A,2253.7220,N,11350.7026,E,0.00,0.00,140117,,,A*7C
$GNVTG,0.00,T,,M,0.00,N,0.00,K,A*23
$GNZDA,012845.000,14,01,2017,00,00*42
$GPTXT,01,01,01,ANTENNA OK*35
$GNGGA,012846.000,2253.7220,N,11350.7026,E,1,11,1.5,44.8,M,0.0,M,,*43
$GNGLL,2253.7220,N,11350.7026,E,012846.000,A,A*4A
$GPGSA,A,3,05,13,02,30,15,24,,,,,,,2.2,1.5,1.6*35
$BDGSA,A,3,01,03,04,08,12,,,,,,,,2.2,1.5,1.6*2D
$GPGSV,3,1,09,02,42,118,48,05,38,041,47,06,05,128,39,13,74,039,41*76
$GPGSV,3,2,09,15,68,244,30,20,45,325,21,24,15,180,28,29,47,278,23*7B
$GPGSV,3,3,09,30,10,055,41*47
$BDGSV,2,1,05,01,49,130,42,03,62,189,42,04,32,111,41,08,65,170,41*6E
$BDGSV,2,2,05,12,46,185,42*56
$GNRMC,012846.000,A,2253.7220,N,11350.7026,E,0.00,0.00,140117,,,A*7F
$GNVTG,0.00,T,,M,0.00,N,0.00,K,A*23
$GNZDA,012846.000,14,01,2017,00,00*41
$GPTXT,01,01,01,ANTENNA OK*35
$GNGGA,012847.000,2253.7220,N,11350.7026,E,1,11,1.5,44.8,M,0.0,M,,*42
$GNGLL,2253.7220,N,11350.7026,E,012847.000,A,A*4B
$GPGSA,A,3,05,13,02,30,15,24,,,,,,,2.2,1.5,1.6*35
$BDGSA,A,3,01,03,04,08,12,,,,,,,,2.2,1.5,1.6*2D
$GPGSV,3,1,09,02,42,118,48,05,38,041,47,06,05,128,39,13,74,039,41*76
$GPGSV,3,2,09,15,68,244,30,20,45,325,21,24,15,180,28,29,47,278,23*7B
$GPGSV,3,3,09,30,10,055,41*47
$BDGSV,2,1,05,01,49,130,42,03,62,189,42,04,32,111,41,08,65,170,41*6E
$BDGSV,2,2,05,12,46,185,42*56
$GNRMC,012847.000,A,2253.7220,N,11350.7026,E,0.00,0.00,140117,,,A*7E
$GNVTG,0.00,T,,M,0.00,N,0.00,K,A*23
$GNZDA,012847.000,14,01,2017,00,00*40
$GPTXT,01,01,01,ANTENNA OK*35
$GNGGA,012848.000,2253.7220,N,11350.7026,E,1,11,1.5,44.8,M,0.0,M,,*4D
$GNGLL,2253.7220,N,11350.7026,E,012848.000,A,A*44
$GPGSA,A,3,05,13,02,30,15,24,,,,,,,2.2,1.5,1.6*35
$BDGSA,A,3,01,03,04,08,12,,,,,,,,2.2,1.5,1.6*2D
$GPGSV,3,1,09,02,42,118,48,05,38,041,47,06,05,128,39,13,74,039,41*76
$GPGSV,3,2,09,15,68,244,28,20,45,325,21,24,15,180,28,29,47,278,23*72
$GPGSV,3,3,09,30,10,055,40*46
$BDGSV,2,1,05,01,49,130,42,03,62,189,42,04,32,111,41,08,65,170,41*6E
$BDGSV,2,2,05,12,46,185,42*56
$GNRMC,012848.000,A,2253.7220,N,11350.7026,E,0.00,0.00,140117,,,A*71
$GNVTG,0.00,T,,M,0.00,N,0.00,K,A*23
$GNZDA,012848.000,14,01,2017,00,00*4F
$GPTXT,01,01,01,ANTENNA OK*35
$GNGGA,012849.000,2253.7220,N,11350.7025,E,1,11,1.5,44.8,M,0.0,M,,*4F
$GNGLL,2253.7220,N,11350.7025,E,012849.000,A,A*46
$GPGSA,A,3,05,13,02,30,15,24,,,,,,,2.2,1.5,1.6*35
$BDGSA,A,3,01,03,04,08,12,,,,,,,,2.2,1.5,1.6*2D
$GPGSV,3,1,09,02,42,118,49,05,38,041,47,06,05,128,39,13,74,039,41*77
$GPGSV,3,2,09,15,68,244,28,20,45,325,21,24,15,180,28,29,47,278,23*72
$GPGSV,3,3,09,30,10,055,40*46
$BDGSV,2,1,05,01,49,130,42,03,62,189,42,04,32,111,41,08,65,170,41*6E
$BDGSV,2,2,05,12,46,185,42*56
$GNRMC,012849.000,A,2253.7220,N,11350.7025,E,0.00,0.00,140117,,,A*73
$GNVTG,0.00,T,,M,0.00,N,0.00,K,A*23
$GNZDA,012849.000,14,01,2017,00,00*4E
$GPTXT,01,01,01,ANTENNA OK*35
$GNGGA,012850.000,2253.7220,N,11350.7025,E,1,11,1.5,44.8,M,0.0,M,,*47
$GNGLL,2253.7220,N,11350.7025,E,012850.000,A,A*4E
$GPGSA,A,3,05,13,02,30,15,24,,,,,,,2.2,1.5,1.6*35
$BDGSA,A,3,01,03,04,08,12,,,,,,,,2.2,1.5,1.6*2D
$GPGSV,3,1,09,02,42,118,49,05,38,041,47,06,05,128,39,13,74,039,41*77
$GPGSV,3,2,09,15,68,244,28,20,45,325,19,24,15,180,28,29,47,278,23*79
$GPGSV,3,3,09,30,10,055,39*48
$BDGSV,2,1,05,01,49,130,42,03,62,189,42,04,32,111,41,08,65,170,41*6E
$BDGSV,2,2,05,12,46,185,42*56
$GNRMC,012850.000,A,2253.7220,N,11350.7025,E,0.00,0.00,140117,,,A*7B
$GNVTG,0.00,T,,M,0.00,N,0.00,K,A*23
$GNZDA,012850.000,14,01,2017,00,00*46
$GPTXT,01,01,01,ANTENNA OK*35
$GNGGA,012851.000,2253.7220,N,11350.7025,E,1,11,1.5,44.8,M,0.0,M,,*46
$GNGLL,2253.7220,N,11350.7025,E,012851.000,A,A*4F
$GPGSA,A,3,05,13,02,30,15,24,,,,,,,2.2,1.5,1.6*35
$BDGSA,A,3,01,03,04,08,12,,,,,,,,2.2,1.5,1.6*2D
$GPGSV,3,1,09,02,42,118,49,05,38,041,47,06,05,128,40,13,74,039,42*7A
$GPGSV,3,2,09,15,68,244,29,20,45,325,19,24,15,180,28,29,47,278,23*78
$GPGSV,3,3,09,30,10,055,39*48
$BDGSV,2,1,05,01,49,130,42,03,62,189,42,04,32,111,41,08,65,170,41*6E
$BDGSV,2,2,05,12,46,185,42*56
$GNRMC,012851.000,A,2253.7220,N,11350.7025,E,0.00,0.00,140117,,,A*7A
$GNVTG,0.00,T,,M,0.00,N,0.00,K,A*23
$GNZDA,012851.000,14,01,2017,00,00*47
$GPTXT,01,01,01,ANTENNA OK*35
$GNGGA,012852.000,2253.7220,N,11350.7025,E,1,11,1.5,44.8,M,0.0,M,,*45
$GNGLL,2253.7220,N,11350.7025,E,012852.000,A,A*4C
$GPGSA,A,3,05,13,02,30,15,24,,,,,,,2.2,1.5,1.6*35
$BDGSA,A,3,01,03,04,08,12,,,,,,,,2.2,1.5,1.6*2D
$GPGSV,3,1,09,02,42,118,49,05,38,041,47,06,05,128,40,13,74,039,42*7A
$GPGSV,3,2,09,15,68,244,29,20,45,325,19,24,15,180,28,29,47,278,23*78
$GPGSV,3,3,09,30,10,055,39*48
$BDGSV,2,1,05,01,49,130,42,03,62,189,42,04,32,111,41,08,65,170,41*6E
$BDGSV,2,2,05,12,46,185,42*56
$GNRMC,012852.000,A,2253.7220,N,11350.7025,E,0.00,0.00,140117,,,A*79
$GNVTG,0.00,T,,M,0.00,N,0.00,K,A*23
$GNZDA,012852.000,14,01,2017,00,00*44
$GPTXT,01,01,01,ANTENNA OK*35
$GNGGA,012853.000,2253.7220,N,11350.7025,E,1,11,1.5,44.8,M,0.0,M,,*44
$GNGLL,2253.7220,N,11350.7025,E,012853.000,A,A*4D
$GPGSA,A,3,05,13,02,30,15,24,,,,,,,2.2,1.5,1.6*35
$BDGSA,A,3,01,03,04,08,12,,,,,,,,2.2,1.5,1.6*2D
$GPGSV,3,1,09,02,42,118,49,05,38,041,47,06,05,128,40,13,74,038,42*7B
$GPGSV,3,2,09,15,68,244,31,20,45,325,19,24,15,180,28,29,47,278,23*71
$GPGSV,3,3,09,30,10,055,38*49
$BDGSV,2,1,05,01,49,130,42,03,62,189,42,04,32,111,41,08,65,170,41*6E
$BDGSV,2,2,05,12,46,185,42*56
$GNRMC,012853.000,A,2253.7220,N,11350.7025,E,0.00,0.00,140117,,,A*78
$GNVTG,0.00,T,,M,0.00,N,0.00,K,A*23
$GNZDA,012853.000,14,01,2017,00,00*45
$GPTXT,01,01,01,ANTENNA OK*35
$GNGGA,012854.000,2253.7220,N,11350.7025,E,1,11,1.5,44.8,M,0.0,M,,*43
$GNGLL,2253.7220,N,11350.7025,E,012854.000,A,A*4A
$GPGSA,A,3,05,13,02,30,15,24,,,,,,,2.2,1.5,1.6*35
$BDGSA,A,3,01,03,04,08,12,,,,,,,,2.2,1.5,1.6*2D
$GPGSV,3,1,09,02,42,118,49,05,38,041,47,06,05,128,40,13,74,038,41*78
$GPGSV,3,2,09,15,68,244,31,20,45,325,19,24,15,180,28,29,47,278,23*71
$GPGSV,3,3,09,30,10,055,38*49
$BDGSV,2,1,05,01,49,130,42,03,62,189,42,04,32,111,41,08,65,170,41*6E
$BDGSV,2,2,05,12,46,185,42*56
$GNRMC,012854.000,A,2253.7220,N,11350.7025,E,0.00,0.00,140117,,,A*7F
$GNVTG,0.00,T,,M,0.00,N,0.00,K,A*23
$GNZDA,012854.000,14,01,2017,00,00*42
$GPTXT,01,01,01,ANTENNA OK*35
$GNGGA,012855.000,2253.7220,N,11350.7025,E,1,11,1.5,44.8,M,0.0,M,,*42
$GNGLL,2253.7220,N,11350.7025,E,012855.000,A,A*4B
$GPGSA,A,3,05,13,02,30,15,24,,,,,,,2.2,1.5,1.6*35
$BDGSA,A,3,01,03,04,08,12,,,,,,,,2.2,1.5,1.6*2D
$GPGSV,3,1,09,02,42,118,49,05,38,041,47,06,05,128,40,13,74,038,41*78
$GPGSV,3,2,09,15,68,244,31,20,45,325,19,24,15,180,28,29,47,278,22*70
$GPGSV,3,3,09,30,10,055,38*49
$BDGSV,2,1,05,01,49,130,42,03,62,189,42,04,32,111,41,08,65,170,41*6E
$BDGSV,2,2,05,12,46,185,42*56
$GNRMC,012855.000,A,2253.7220,N,11350.7025,E,0.00,0.00,140117,,,A*7E
$GNVTG,0.00,T,,M,0.00,N,0.00,K,A*23
$GNZDA,012855.000,14,01,2017,00,00*43
$GPTXT,01,01,01,ANTENNA OK*35
$GNGGA,012856.000,2253.7220,N,11350.7025,E,1,11,1.5,44.8,M,0.0,M,,*41
$GNGLL,2253.7220,N,11350.7025,E,012856.000,A,A*48
$GPGSA,A,3,05,13,02,30,15,24,,,,,,,2.2,1.5,1.6*35
$BDGSA,A,3,01,03,04,08,12,,,,,,,,2.2,1.5,1.6*2D
$GPGSV,3,1,09,02,42,118,49,05,38,041,47,06,05,128,40,13,74,038,41*78
$GPGSV,3,2,09,15,68,244,31,20,45,325,19,24,15,180,28,29,47,278,22*70
$GPGSV,3,3,09,30,10,055,38*49
$BDGSV,2,1,05,01,49,130,42,03,62,189,42,04,32,111,41,08,65,170,41*6E
$BDGSV,2,2,05,12,46,185,42*56
$GNRMC,012856.000,A,2253.7220,N,11350.7025,E,0.00,0.00,140117,,,A*7D
$GNVTG,0.00,T,,M,0.00,N,0.00,K,A*23
$GNZDA,012856.000,14,01,2017,00,00*40
$GPTXT,01,01,01,ANTENNA OK*35
$GNGGA,012857.000,2253.7220,N,11350.7025,E,1,11,1.5,44.8,M,0.0,M,,*40
$GNGLL,2253.7220,N,11350.7025,E,012857.000,A,A*49
$GPGSA,A,3,05,13,02,30,15,24,,,,,,,2.2,1.5,1.6*35
$BDGSA,A,3,01,03,04,08,12,,,,,,,,2.2,1.5,1.6*2D
$GPGSV,3,1,09,02,42,118,49,05,38,041,47,06,05,128,40,13,74,038,42*7B
$GPGSV,3,2,09,15,68,244,32,20,45,325,19,24,15,180,28,29,47,278,22*73
$GPGSV,3,3,09,30,10,055,38*49
$BDGSV,2,1,05,01,49,130,42,03,62,189,42,04,32,111,41,08,65,170,41*6E
$BDGSV,2,2,05,12,46,185,42*56
$GNRMC,012857.000,A,2253.7220,N,11350.7025,E,0.00,0.00,140117,,,A*7C
$GNVTG,0.00,T,,M,0.00,N,0.00,K,A*23
$GNZDA,012857.000,14,01,2017,00,00*41
$GPTXT,01,01,01,ANTENNA OK*35
$GNGGA,012858.000,2253.7220,N,11350.7025,E,1,11,1.5,44.8,M,0.0,M,,*4F
$GNGLL,2253.7220,N,11350.7025,E,012858.000,A,A*46
$GPGSA,A,3,05,13,02,30,15,24,,,,,,,2.2,1.5,1.6*35
$BDGSA,A,3,01,03,04,08,12,,,,,,,,2.2,1.5,1.6*2D
$GPGSV,3,1,09,02,42,118,49,05,38,041,47,06,05,128,40,13,74,038,42*7B
$GPGSV,3,2,09,15,68,244,32,20,45,325,19,24,15,180,28,29,47,278,22*73
$GPGSV,3,3,09,30,10,055,39*48
$BDGSV,2,1,05,01,49,130,42,03,62,189,42,04,32,111,41,08,65,170,41*6E
$BDGSV,2,2,05,12,46,185,42*56
$GNRMC,012858.000,A,2253.7220,N,11350.7025,E,0.00,0.00,140117,,,A*73
$GNVTG,0.00,T,,M,0.00,N,0.00,K,A*23
$GNZDA,012858.000,14,01,2017,00,00*4E
$GPTXT,01,01,01,ANTENNA OK*35
$GNGGA,012859.000,2253.7220,N,11350.7025,E,1,11,1.5,44.8,M,0.0,M,,*4E
$GNGLL,2253.7220,N,11350.7025,E,012859.000,A,A*47
$GPGSA,A,3,05,13,02,30,15,24,,,,,,,2.2,1.5,1.6*35
$BDGSA,A,3,01,03,04,08,12,,,,,,,,2.2,1.5,1.6*2D
$GPGSV,3,1,09,02,42,118,49,05,38,041,47,06,05,128,40,13,74,038,41*78
$GPGSV,3,2,09,15,68,244,32,20,45,325,19,24,15,180,28,29,47,278,22*73
$GPGSV,3,3,09,30,10,055,39*48
$BDGSV,2,1,05,01,49,130,42,03,62,189,42,04,32,111,41,08,65,170,41*6E
$BDGSV,2,2,05,12,46,185,42*56
$GNRMC,012859.000,A,2253.7220,N,11350.7025,E,0.00,0.00,140117,,,A*72
$GNVTG,0.00,T,,M,0.00,N,0.00,K,A*23
$GNZDA,012859.000,14,01,2017,00,00*4F
$GPTXT,01,01,01,ANTENNA OK*35
$GNGGA,012900.000,2253.7220,N,11350.7025,E,1,11,1.5,44.8,M,0.0,M,,*43
$GNGLL,2253.7220,N,11350.7025,E,012900.000,A,A*4A
$GPGSA,A,3,05,13,02,30,15,24,,,,,,,2.2,1.5,1.6*35
$BDGSA,A,3,01,03,04,08,12,,,,,,,,2.2,1.5,1.6*2D
$GPGSV,3,1,09,02,42,118,49,05,38,041,46,06,05,128,40,13,74,038,41*79
$GPGSV,3,2,09,15,68,244,32,20,45,325,20,24,15,180,29,29,47,278,18*71
$GPGSV,3,3,09,30,10,055,39*48
$BDGSV,2,1,05,01,49,130,42,03,62,189,42,04,32,111,41,08,65,170,41*6E
$BDGSV,2,2,05,12,46,185,42*56
$GNRMC,012900.000,A,2253.7220,N,11350.7025,E,0.00,0.00,140117,,,A*7F
$GNVTG,0.00,T,,M,0.00,N,0.00,K,A*23
$GNZDA,012900.000,14,01,2017,00,00*42
$GPTXT,01,01,01,ANTENNA OK*35
$GNGGA,012901.000,2253.7220,N,11350.7025,E,1,11,1.5,44.8,M,0.0,M,,*42
$GNGLL,2253.7220,N,11350.7025,E,012901.000,A,A*4B
$GPGSA,A,3,05,13,02,30,15,24,,,,,,,2.2,1.5,1.6*35
$BDGSA,A,3,01,03,04,08,12,,,,,,,,2.2,1.5,1.6*2D
$GPGSV,3,1,09,02,42,118,49,05,38,041,46,06,05,128,39,13,74,038,41*77
$GPGSV,3,2,09,15,68,244,32,20,45,325,20,24,15,180,29,29,47,278,18*71
$GPGSV,3,3,09,30,10,055,39*48
$BDGSV,2,1,05,01,49,130,42,03,62,189,42,04,32,111,41,08,65,170,41*6E
$BDGSV,2,2,05,12,46,185,42*56
$GNRMC,012901.000,A,2253.7220,N,11350.7025,E,0.00,0.00,140117,,,A*7E
$GNVTG,0.00,T,,M,0.00,N,0.00,K,A*23
$GNZDA,012901.000,14,01,2017,00,00*43
$GPTXT,01,01,01,ANTENNA OK*35
$GNGGA,012902.000,2253.7220,N,11350.7025,E,1,11,1.5,44.8,M,0.0,M,,*41
$GNGLL,2253.7220,N,11350.7025,E,012902.000,A,A*48
$GPGSA,A,3,05,13,02,30,15,24,,,,,,,2.2,1.5,1.6*35
$BDGSA,A,3,01,03,04,08,12,,,,,,,,2.2,1.5,1.6*2D
$GPGSV,3,1,09,02,42,118,49,05,38,041,46,06,05,128,39,13,74,038,41*77
$GPGSV,3,2,09,15,68,244,32,20,45,325,20,24,15,180,29,29,47,278,18*71
$GPGSV,3,3,09,30,10,055,39*48
$BDGSV,2,1,05,01,49,130,42,03,62,189,42,04,32,111,41,08,65,170,41*6E
$BDGSV,2,2,05,12,46,185,42*56
$GNRMC,012902.000,A,2253.7220,N,11350.7025,E,0.00,0.00,140117,,,A*7D
$GNVTG,0.00,T,,M,0.00,N,0.00,K,A*23
$GNZDA,012902.000,14,01,2017,00,00*40
$GPTXT,01,01,01,ANTENNA OK*35
$GNGGA,012903.000,2253.7220,N,11350.7025,E,1,11,1.5,44.8,M,0.0,M,,*40
$GNGLL,2253.7220,N,11350.7025,E,012903.000,A,A*49
$GPGSA,A,3,05,13,02,30,15,24,,,,,,,2.2,1.5,1.6*35
$BDGSA,A,3,01,03,04,08,12,,,,,,,,2.2,1.5,1.6*2D
$GPGSV,3,1,09,02,42,118,49,05,38,041,47,06,05,128,38,13,74,038,41*77
$GPGSV,3,2,09,15,68,244,31,20,45,325,20,24,15,180,29,29,47,278,18*72
$GPGSV,3,3,09,30,10,055,39*48
$BDGSV,2,1,05,01,49,130,42,03,62,189,42,04,32,111,41,08,65,170,41*6E
$BDGSV,2,2,05,12,46,185,42*56
$GNRMC,012903.000,A,2253.7220,N,11350.7025,E,0.00,0.00,140117,,,A*7C
$GNVTG,0.00,T,,M,0.00,N,0.00,K,A*23
$GNZDA,012903.000,14,01,2017,00,00*41
$GPTXT,01,01,01,ANTENNA OK*35
$GNGGA,012904.000,2253.7220,N,11350.7025,E,1,11,1.5,44.8,M,0.0,M,,*47
$GNGLL,2253.7220,N,11350.7025,E,012904.000,A,A*4E
$GPGSA,A,3,05,13,02,30,15,24,,,,,,,2.2,1.5,1.6*35
$BDGSA,A,3,01,03,04,08,12,,,,,,,,2.2,1.5,1.6*2D
$GPGSV,3,1,09,02,42,118,49,05,38,041,47,06,05,128,38,13,74,038,41*77
$GPGSV,3,2,09,15,68,244,31,20,45,325,20,24,15,180,29,29,47,278,18*72
$GPGSV,3,3,09,30,10,055,39*48
$BDGSV,2,1,05,01,49,130,42,03,62,189,42,04,32,111,41,08,65,170,41*6E
$BDGSV,2,2,05,12,46,185,42*56
$GNRMC,012904.000,A,2253.7220,N,11350.7025,E,0.00,0.00,140117,,,A*7B
$GNVTG,0.00,T,,M,0.00,N,0.00,K,A*23
$GNZDA,012904.000,14,01,2017,00,00*46
$GPTXT,01,01,01,ANTENNA OK*35
$GNGGA,012905.000,2253.7220,N,11350.7025,E,1,11,1.5,44.8,M,0.0,M,,*46
$GNGLL,2253.7220,N,11350.7025,E,012905.000,A,A*4F
$GPGSA,A,3,05,13,02,30,15,24,,,,,,,2.2,1.5,1.6*35
$BDGSA,A,3,01,03,04,08,12,,,,,,,,2.2,1.5,1.6*2D
$GPGSV,3,1,09,02,42,118,49,05,38,041,47,06,05,128,38,13,74,038,41*77
$GPGSV,3,2,09,15,68,244,31,20,45,325,20,24,15,180,28,29,47,277,18*7C
$GPGSV,3,3,09,30,10,055,40*46
$BDGSV,2,1,05,01,49,130,42,03,62,189,42,04,32,111,41,08,65,170,41*6E
$BDGSV,2,2,05,12,46,185,42*56
$GNRMC,012905.000,A,2253.7220,N,11350.7025,E,0.00,0.00,140117,,,A*7A
$GNVTG,0.00,T,,M,0.00,N,0.00,K,A*23
$GNZDA,012905.000,14,01,2017,00,00*47
$GPTXT,01,01,01,ANTENNA OK*35
$GNGGA,012906.000,2253.7220,N,11350.7025,E,1,11,1.5,44.8,M,0.0,M,,*45
$GNGLL,2253.7220,N,11350.7025,E,012906.000,A,A*4C
$GPGSA,A,3,05,13,02,30,15,24,,,,,,,2.2,1.5,1.6*35
$BDGSA,A,3,01,03,04,08,12,,,,,,,,2.2,1.5,1.6*2D
$GPGSV,3,1,09,02,42,118,49,05,38,041,47,06,05,128,39,13,74,038,40*77
$GPGSV,3,2,09,15,68,244,30,20,45,325,20,24,15,180,28,29,47,277,18*7D
$GPGSV,3,3,09,30,10,055,40*46
$BDGSV,2,1,05,01,49,130,42,03,62,189,42,04,32,111,41,08,65,170,41*6E
$BDGSV,2,2,05,12,46,185,42*56
$GNRMC,012906.000,A,2253.7220,N,11350.7025,E,0.00,0.00,140117,,,A*79
$GNVTG,0.00,T,,M,0.00,N,0.00,K,A*23
$GNZDA,012906.000,14,01,2017,00,00*44
$GPTXT,01,01,01,ANTENNA OK*35
$GNGGA,012907.000,2253.7220,N,11350.7025,E,1,11,1.5,44.8,M,0.0,M,,*44
$GNGLL,2253.7220,N,11350.7025,E,012907.000,A,A*4D
$GPGSA,A,3,05,13,02,30,15,24,,,,,,,2.2,1.5,1.6*35
$BDGSA,A,3,01,03,04,08,12,,,,,,,,2.2,1.5,1.6*2D
$GPGSV,3,1,09,02,42,118,48,05,38,041,47,06,05,128,39,13,74,038,40*76
$GPGSV,3,2,09,15,68,245,30,20,45,325,22,24,15,180,28,29,47,277,18*7E
$GPGSV,3,3,09,30,10,055,40*46
$BDGSV,2,1,05,01,49,130,42,03,62,189,42,04,32,111,41,08,65,170,41*6E
$BDGSV,2,2,05,12,46,185,42*56
$GNRMC,012907.000,A,2253.7220,N,11350.7025,E,0.00,0.00,140117,,,A*78
$GNVTG,0.00,T,,M,0.00,N,0.00,K,A*23
$GNZDA,012907.000,14,01,2017,00,00*45
$GPTXT,01,01,01,ANTENNA OK*35
$GNGGA,012908.000,2253.7220,N,11350.7025,E,1,11,1.5,44.8,M,0.0,M,,*4B
$GNGLL,2253.7220,N,11350.7025,E,012908.000,A,A*42
$GPGSA,A,3,05,13,02,30,15,24,,,,,,,2.2,1.5,1.6*35
$BDGSA,A,3,01,03,04,08,12,,,,,,,,2.2,1.5,1.6*2D
$GPGSV,3,1,09,02,42,118,48,05,38,041,46,06,05,128,39,13,74,038,40*77
$GPGSV,3,2,09,15,68,245,30,20,45,325,22,24,15,180,28,29,47,277,18*7E
$GPGSV,3,3,09,30,10,055,40*46
$BDGSV,2,1,05,01,49,130,42,03,62,189,42,04,32,111,41,08,65,170,41*6E
$BDGSV,2,2,05,12,46,185,42*56
$GNRMC,012908.000,A,2253.7220,N,11350.7025,E,0.00,0.00,140117,,,A*77
$GNVTG,0.00,T,,M,0.00,N,0.00,K,A*23
$GNZDA,012908.000,14,01,2017,00,00*4A
$GPTXT,01,01,01,ANTENNA OK*35
$GNGGA,012909.000,2253.7220,N,11350.7025,E,1,11,1.5,44.8,M,0.0,M,,*4A
$GNGLL,2253.7220,N,11350.7025,E,012909.000,A,A*43
$GPGSA,A,3,05,13,02,30,15,24,,,,,,,2.2,1.5,1.6*35
$BDGSA,A,3,01,03,04,08,12,,,,,,,,2.2,1.5,1.6*2D
$GPGSV,3,1,09,02,42,118,48,05,38,041,47,06,05,128,39,13,74,038,41*77
$GPGSV,3,2,09,15,68,245,28,20,45,325,22,24,15,180,28,29,47,277,18*77
$GPGSV,3,3,09,30,10,055,40*46
$BDGSV,2,1,05,01,49,130,42,03,62,189,42,04,32,111,41,08,65,170,41*6E
$BDGSV,2,2,05,12,46,185,42*56
$GNRMC,012909.000,A,2253.7220,N,11350.7025,E,0.00,0.00,140117,,,A*76
$GNVTG,0.00,T,,M,0.00,N,0.00,K,A*23
$GNZDA,012909.000,14,01,2017,00,00*4B
$GPTXT,01,01,01,ANTENNA OK*35
$GNGGA,012910.000,2253.7220,N,11350.7026,E,1,11,1.5,44.8,M,0.0,M,,*41
$GNGLL,2253.7220,N,11350.7026,E,012910.000,A,A*48
$GPGSA,A,3,05,13,02,30,15,24,,,,,,,2.2,1.5,1.6*35
$BDGSA,A,3,01,03,04,08,12,,,,,,,,2.2,1.5,1.6*2D
$GPGSV,3,1,09,02,42,118,48,05,38,041,47,06,05,128,39,13,74,038,41*77
$GPGSV,3,2,09,15,68,245,28,20,45,325,22,24,15,180,28,29,47,277,18*77
$GPGSV,3,3,09,30,10,055,40*46
$BDGSV,2,1,05,01,49,130,42,03,62,189,42,04,32,111,41,08,65,170,41*6E
$BDGSV,2,2,05,12,46,185,42*56
$GNRMC,012910.000,A,2253.7220,N,11350.7026,E,0.00,0.00,140117,,,A*7D
$GNVTG,0.00,T,,M,0.00,N,0.00,K,A*23
$GNZDA,012910.000,14,01,2017,00,00*43
$GPTXT,01,01,01,ANTENNA OK*35
$GNGGA,012911.000,2253.7220,N,11350.7026,E,1,11,1.5,44.8,M,0.0,M,,*40
$GNGLL,2253.7220,N,11350.7026,E,012911.000,A,A*49
$GPGSA,A,3,05,13,02,30,15,24,,,,,,,2.2,1.5,1.6*35
$BDGSA,A,3,01,03,04,08,12,,,,,,,,2.2,1.5,1.6*2D
$GPGSV,3,1,09,02,42,118,48,05,38,041,47,06,05,128,39,13,74,038,41*77
$GPGSV,3,2,09,15,68,245,28,20,45,325,22,24,15,180,28,29,47,277,18*77
$GPGSV,3,3,09,30,10,055,40*46
$BDGSV,2,1,05,01,49,130,42,03,62,189,42,04,32,111,41,08,65,170,41*6E
$BDGSV,2,2,05,12,46,185,42*56
$GNRMC,012911.000,A,2253.7220,N,11350.7026,E,0.00,0.00,140117,,,A*7C
$GNVTG,0.00,T,,M,0.00,N,0.00,K,A*23
$GNZDA,012911.000,14,01,2017,00,00*42
$GPTXT,01,01,01,ANTENNA OK*35
$GNGGA,012912.000,2253.7220,N,11350.7025,E,1,11,1.5,44.8,M,0.0,M,,*40
$GNGLL,2253.7220,N,11350.7025,E,012912.000,A,A*49
$GPGSA,A,3,05,13,02,30,15,24,,,,,,,2.2,1.5,1.6*35
$BDGSA,A,3,01,03,04,08,12,,,,,,,,2.2,1.5,1.6*2D
$GPGSV,3,1,09,02,42,118,48,05,38,041,47,06,05,128,39,13,74,038,40*76
$GPGSV,3,2,09,15,68,245,28,20,45,325,22,24,15,180,28,29,47,277,18*77
$GPGSV,3,3,09,30,10,055,40*46
$BDGSV,2,1,05,01,49,130,42,03,62,189,42,04,32,111,41,08,65,170,41*6E
$BDGSV,2,2,05,12,46,185,42*56
$GNRMC,012912.000,A,2253.7220,N,11350.7025,E,0.00,0.00,140117,,,A*7C
$GNVTG,0.00,T,,M,0.00,N,0.00,K,A*23
$GNZDA,012912.000,14,01,2017,00,00*41
$GPTXT,01,01,01,ANTENNA OK*35
$GNGGA,012913.000,2253.7220,N,11350.7025,E,1,11,1.5,44.8,M,0.0,M,,*41
$GNGLL,2253.7220,N,11350.7025,E,012913.000,A,A*48
$GPGSA,A,3,05,13,02,30,15,24,,,,,,,2.2,1.5,1.6*35
$BDGSA,A,3,01,03,04,08,12,,,,,,,,2.2,1.5,1.6*2D
$GPGSV,3,1,09,02,42,118,48,05,38,041,47,06,05,128,39,13,74,038,40*76
$GPGSV,3,2,09,15,68,245,28,20,45,325,24,24,15,180,28,29,47,277,16*7F
$GPGSV,3,3,09,30,10,055,39*48
$BDGSV,2,1,05,01,49,130,42,03,62,189,42,04,32,111,41,08,65,170,41*6E
$BDGSV,2,2,05,12,46,185,42*56
$GNRMC,012913.000,A,2253.7220,N,11350.7025,E,0.00,0.00,140117,,,A*7D
$GNVTG,0.00,T,,M,0.00,N,0.00,K,A*23
$GNZDA,012913.000,14,01,2017,00,00*40
$GPTXT,01,01,01,ANTENNA OK*35
$GNGGA,012914.000,2253.7220,N,11350.7025,E,1,11,1.5,44.8,M,0.0,M,,*46
$GNGLL,2253.7220,N,11350.7025,E,012914.000,A,A*4F
$GPGSA,A,3,05,13,02,30,15,24,,,,,,,2.2,1.5,1.6*35
$BDGSA,A,3,01,03,04,08,12,,,,,,,,2.2,1.5,1.6*2D
$GPGSV,3,1,09,02,42,118,48,05,38,041,47,06,05,128,39,13,74,038,40*76
$GPGSV,3,2,09,15,68,245,28,20,45,325,24,24,15,180,28,29,47,277,16*7F
$GPGSV,3,3,09,30,10,055,39*48
$BDGSV,2,1,05,01,49,130,42,03,62,189,42,04,32,111,41,08,65,170,41*6E
$BDGSV,2,2,05,12,46,185,42*56
$GNRMC,012914.000,A,2253.7220,N,11350.7025,E,0.00,0.00,140117,,,A*7A
$GNVTG,0.00,T,,M,0.00,N,0.00,K,A*23
$GNZDA,012914.000,14,01,2017,00,00*47
$GPTXT,01,01,01,ANTENNA OK*35
$GNGGA,012915.000,2253.7220,N,11350.7025,E,1,11,1.5,44.9,M,0.0,M,,*46
$GNGLL,2253.7220,N,11350.7025,E,012915.000,A,A*4E
$GPGSA,A,3,05,13,02,30,15,24,,,,,,,2.2,1.5,1.6*35
$BDGSA,A,3,01,03,04,08,12,,,,,,,,2.2,1.5,1.6*2D
$GPGSV,3,1,09,02,42,118,48,05,38,041,47,06,05,128,39,13,74,038,40*76
$GPGSV,3,2,09,15,68,245,28,20,45,325,24,24,15,180,29,29,47,277,16*7E
$GPGSV,3,3,09,30,10,055,39*48
$BDGSV,2,1,05,01,49,130,42,03,62,189,42,04,32,111,41,08,65,170,41*6E
$BDGSV,2,2,05,12,46,185,42*56
$GNRMC,012915.000,A,2253.7220,N,11350.7025,E,0.00,0.00,140117,,,A*7B
$GNVTG,0.00,T,,M,0.00,N,0.00,K,A*23
$GNZDA,012915.000,14,01,2017,00,00*46
$GPTXT,01,01,01,ANTENNA OK*35
$GNGGA,012916.000,2253.7220,N,11350.7025,E,1,11,1.5,44.9,M,0.0,M,,*45
$GNGLL,2253.7220,N,11350.7025,E,012916.000,A,A*4D
$GPGSA,A,3,05,13,02,30,15,24,,,,,,,2.2,1.5,1.6*35
$BDGSA,A,3,01,03,04,08,12,,,,,,,,2.2,1.5,1.6*2D
$GPGSV,3,1,09,02,42,118,48,05,38,041,47,06,05,128,39,13,74,038,40*76
$GPGSV,3,2,09,15,68,245,28,20,45,325,24,24,15,180,29,29,47,277,16*7E
$GPGSV,3,3,09,30,10,055,39*48
$BDGSV,2,1,05,01,49,130,42,03,62,189,42,04,32,111,41,08,65,170,42*6D
$BDGSV,2,2,05,12,46,185,42*56
$GNRMC,012916.000,A,2253.7220,N,11350.7025,E,0.00,0.00,140117,,,A*78
$GNVTG,0.00,T,,M,0.00,N,0.00,K,A*23
$GNZDA,012916.000,14,01,2017,00,00*45
$GPTXT,01,01,01,ANTENNA OK*35
$GNGGA,012917.000,2253.7220,N,11350.7025,E,1,11,1.5,44.9,M,0.0,M,,*44
$GNGLL,2253.7220,N,11350.7025,E,012917.000,A,A*4C
$GPGSA,A,3,05,13,02,30,15,24,,,,,,,2.2,1.5,1.6*35
$BDGSA,A,3,01,03,04,08,12,,,,,,,,2.2,1.5,1.6*2D
$GPGSV,3,1,09,02,42,118,48,05,38,041,47,06,05,128,39,13,74,038,40*76
$GPGSV,3,2,09,15,68,245,23,20,45,325,24,24,15,180,29,29,47,277,16*75
$GPGSV,3,3,09,30,10,055,39*48
$BDGSV,2,1,05,01,49,130,42,03,62,189,42,04,32,111,41,08,65,170,42*6D
$BDGSV,2,2,05,12,46,185,42*56
$GNRMC,012917.000,A,2253.7220,N,11350.7025,E,0.00,0.00,140117,,,A*79
$GNVTG,0.00,T,,M,0.00,N,0.00,K,A*23
$GNZDA,012917.000,14,01,2017,00,00*44
$GPTXT,01,01,01,ANTENNA OK*35
$GNGGA,012918.000,2253.7220,N,11350.7025,E,1,11,1.5,44.9,M,0.0,M,,*4B
$GNGLL,2253.7220,N,11350.7025,E,012918.000,A,A*43
$GPGSA,A,3,05,13,02,30,15,24,,,,,,,2.2,1.5,1.6*35
$BDGSA,A,3,01,03,04,08,12,,,,,,,,2.2,1.5,1.6*2D
$GPGSV,3,1,09,02,42,118,48,05,38,041,47,06,05,128,39,13,74,038,40*76
$GPGSV,3,2,09,15,68,245,23,20,45,325,24,24,15,180,29,29,47,277,16*75
$GPGSV,3,3,09,30,10,055,39*48
$BDGSV,2,1,05,01,49,130,42,03,62,189,42,04,32,111,41,08,65,170,42*6D
$BDGSV,2,2,05,12,46,185,42*56
$GNRMC,012918.000,A,2253.7220,N,11350.7025,E,0.00,0.00,140117,,,A*76
$GNVTG,0.00,T,,M,0.00,N,0.00,K,A*23
$GNZDA,012918.000,14,01,2017,00,00*4B
$GPTXT,01,01,01,ANTENNA OK*35
$GNGGA,012919.000,2253.7220,N,11350.7025,E,1,11,1.5,44.9,M,0.0,M,,*4A
$GNGLL,2253.7220,N,11350.7025,E,012919.000,A,A*42
$GPGSA,A,3,05,13,02,30,15,24,,,,,,,2.2,1.5,1.6*35
$BDGSA,A,3,01,03,04,08,12,,,,,,,,2.2,1.5,1.6*2D
$GPGSV,3,1,09,02,42,118,48,05,38,041,47,06,05,128,39,13,74,038,40*76
$GPGSV,3,2,09,15,68,245,23,20,45,325,21,24,15,180,29,29,47,277,16*70
$GPGSV,3,3,09,30,10,055,39*48
$BDGSV,2,1,05,01,49,130,42,03,62,189,42,04,32,111,41,08,65,170,41*6E
$BDGSV,2,2,05,12,46,185,42*56
$GNRMC,012919.000,A,2253.7220,N,11350.7025,E,0.00,0.00,140117,,,A*77
$GNVTG,0.00,T,,M,0.00,N,0.00,K,A*23
$GNZDA,012919.000,14,01,2017,00,00*4A
$GPTXT,01,01,01,ANTENNA OK*35
$GNGGA,012920.000,2253.7220,N,11350.7025,E,1,11,1.5,44.9,M,0.0,M,,*40
$GNGLL,2253.7220,N,11350.7025,E,012920.000,A,A*48
$GPGSA,A,3,05,13,02,30,15,24,,,,,,,2.2,1.5,1.6*35
$BDGSA,A,3,01,03,04,08,12,,,,,,,,2.2,1.5,1.6*2D
$GPGSV,3,1,09,02,42,118,48,05,38,041,47,06,05,128,39,13,74,038,40*76
$GPGSV,3,2,09,15,68,245,23,20,45,325,21,24,15,180,29,29,47,277,16*70
$GPGSV,3,3,09,30,10,055,39*48
$BDGSV,2,1,05,01,49,130,42,03,62,189,42,04,32,111,41,08,65,170,41*6E
$BDGSV,2,2,05,12,46,185,42*56
$GNRMC,012920.000,A,2253.7220,N,11350.7025,E,0.00,0.00,140117,,,A*7D
$GNVTG,0.00,T,,M,0.00,N,0.00,K,A*23
$GNZDA,012920.000,14,01,2017,00,00*40
$GPTXT,01,01,01,ANTENNA OK*35
$GNGGA,012921.000,2253.7220,N,11350.7026,E,1,11,1.5,44.9,M,0.0,M,,*42
$GNGLL,2253.7220,N,11350.7026,E,012921.000,A,A*4A
$GPGSA,A,3,05,13,02,30,15,24,,,,,,,2.2,1.5,1.6*35
$BDGSA,A,3,01,03,04,08,12,,,,,,,,2.2,1.5,1.6*2D
$GPGSV,3,1,09,02,42,118,48,05,38,041,47,06,05,128,38,13,74,038,40*77
$GPGSV,3,2,09,15,68,245,23,20,45,325,21,24,15,180,29,29,47,277,16*70
$GPGSV,3,3,09,30,10,055,39*48
$BDGSV,2,1,05,01,49,130,42,03,62,189,42,04,32,111,41,08,65,170,42*6D
$BDGSV,2,2,05,12,46,185,42*56
$GNRMC,012921.000,A,2253.7220,N,11350.7026,E,0.00,0.00,140117,,,A*7F
$GNVTG,0.00,T,,M,0.00,N,0.00,K,A*23
$GNZDA,012921.000,14,01,2017,00,00*41
$GPTXT,01,01,01,ANTENNA OK*35
$GNGGA,012922.000,2253.7220,N,11350.7026,E,1,11,1.5,44.9,M,0.0,M,,*41
$GNGLL,2253.7220,N,11350.7026,E,012922.000,A,A*49
$GPGSA,A,3,05,13,02,30,15,24,,,,,,,2.2,1.5,1.6*35
$BDGSA,A,3,01,03,04,08,12,,,,,,,,2.2,1.5,1.6*2D
$GPGSV,3,1,09,02,42,118,48,05,38,041,47,06,05,128,38,13,74,038,39*79
$GPGSV,3,2,09,15,68,245,23,20,45,325,21,24,15,180,29,29,47,277,18*7E
$GPGSV,3,3,09,30,10,055,37*46
$BDGSV,2,1,05,01,49,130,42,03,62,189,42,04,32,111,41,08,65,170,42*6D
$BDGSV,2,2,05,12,46,185,42*56
$GNRMC,012922.000,A,2253.7220,N,11350.7026,E,0.00,0.00,140117,,,A*7C
$GNVTG,0.00,T,,M,0.00,N,0.00,K,A*23
$GNZDA,012922.000,14,01,2017,00,00*42
$GPTXT,01,01,01,ANTENNA OK*35
$GNGGA,012923.000,2253.7220,N,11350.7026,E,1,11,1.5,44.9,M,0.0,M,,*40
$GNGLL,2253.7220,N,11350.7026,E,012923.000,A,A*48
$GPGSA,A,3,05,13,02,30,15,24,,,,,,,2.2,1.5,1.6*35
$BDGSA,A,3,01,03,04,08,12,,,,,,,,2.2,1.5,1.6*2D
$GPGSV,3,1,09,02,42,118,48,05,38,041,47,06,05,128,38,13,74,038,39*79
$GPGSV,3,2,09,15,68,245,23,20,45,325,21,24,15,180,29,29,47,277,18*7E
$GPGSV,3,3,09,30,10,055,37*46
$BDGSV,2,1,05,01,49,130,42,03,62,189,42,04,32,111,42,08,65,170,42*6E
$BDGSV,2,2,05,12,46,185,42*56
$GNRMC,012923.000,A,2253.7220,N,11350.7026,E,0.00,0.00,140117,,,A*7D
$GNVTG,0.00,T,,M,0.00,N,0.00,K,A*23
$GNZDA,012923.000,14,01,2017,00,00*43
$GPTXT,01,01,01,ANTENNA OK*35
$GNGGA,012924.000,2253.7220,N,11350.7026,E,1,11,1.5,44.9,M,0.0,M,,*47
$GNGLL,2253.7220,N,11350.7026,E,012924.000,A,A*4F
$GPGSA,A,3,05,13,02,30,15,24,,,,,,,2.2,1.5,1.6*35
$BDGSA,A,3,01,03,04,08,12,,,,,,,,2.2,1.5,1.6*2D
$GPGSV,3,1,09,02,42,118,48,05,38,041,47,06,05,128,39,13,73,038,39*7F
$GPGSV,3,2,09,15,68,245,23,20,45,325,21,24,15,180,29,29,47,277,18*7E
$GPGSV,3,3,09,30,10,055,37*46
$BDGSV,2,1,05,01,49,130,42,03,62,189,42,04,32,111,42,08,65,170,42*6E
$BDGSV,2,2,05,12,46,185,42*56
$GNRMC,012924.000,A,2253.7220,N,11350.7026,E,0.00,0.00,140117,,,A*7A
$GNVTG,0.00,T,,M,0.00,N,0.00,K,A*23
$GNZDA,012924.000,14,01,2017,00,00*44
$GPTXT,01,01,01,ANTENNA OK*35
$GNGGA,012925.000,2253.7220,N,11350.7026,E,1,11,1.5,44.9,M,0.0,M,,*46
$GNGLL,2253.7220,N,11350.7026,E,012925.000,A,A*4E
$GPGSA,A,3,05,13,02,30,15,24,,,,,,,2.2,1.5,1.6*35
$BDGSA,A,3,01,03,04,08,12,,,,,,,,2.2,1.5,1.6*2D
$GPGSV,3,1,09,02,42,118,48,05,38,041,46,06,05,128,39,13,73,038,39*7E
$GPGSV,3,2,09,15,68,245,23,20,45,325,21,24,15,180,29,29,47,277,18*7E
$GPGSV,3,3,09,30,10,055,37*46
$BDGSV,2,1,05,01,49,130,42,03,62,189,42,04,32,111,42,08,65,170,42*6E
$BDGSV,2,2,05,12,46,185,42*56
$GNRMC,012925.000,A,2253.7220,N,11350.7026,E,0.00,0.00,140117,,,A*7B
$GNVTG,0.00,T,,M,0.00,N,0.00,K,A*23
$GNZDA,012925.000,14,01,2017,00,00*45
$GPTXT,01,01,01,ANTENNA OK*35
$GNGGA,012926.000,2253.7220,N,11350.7026,E,1,11,1.5,44.9,M,0.0,M,,*45
$GNGLL,2253.7220,N,11350.7026,E,012926.000,A,A*4D
$GPGSA,A,3,05,13,02,30,15,24,,,,,,,2.2,1.5,1.6*35
$BDGSA,A,3,01,03,04,08,12,,,,,,,,2.2,1.5,1.6*2D
$GPGSV,3,1,09,02,42,118,48,05,38,041,46,06,05,128,39,13,73,038,39*7E
$GPGSV,3,2,09,15,68,245,23,20,45,325,21,24,15,180,29,29,47,277,18*7E
$GPGSV,3,3,09,30,10,055,37*46
$BDGSV,2,1,05,01,49,130,42,03,62,189,42,04,32,111,42,08,65,170,42*6E
$BDGSV,2,2,05,12,46,185,42*56
$GNRMC,012926.000,A,2253.7220,N,11350.7026,E,0.00,0.00,140117,,,A*78
$GNVTG,0.00,T,,M,0.00,N,0.00,K,A*23
$GNZDA,012926.000,14,01,2017,00,00*46
$GPTXT,01,01,01,ANTENNA OK*35
$GNGGA,012927.000,2253.7220,N,11350.7026,E,1,11,1.5,44.9,M,0.0,M,,*44
$GNGLL,2253.7220,N,11350.7026,E,012927.000,A,A*4C
$GPGSA,A,3,05,13,02,30,15,24,,,,,,,2.2,1.5,1.6*35
$BDGSA,A,3,01,03,04,08,12,,,,,,,,2.2,1.5,1.6*2D
$GPGSV,3,1,09,02,42,119,48,05,38,041,46,06,05,128,38,13,73,038,39*7E
$GPGSV,3,2,09,15,68,245,23,20,45,325,21,24,15,180,29,29,47,277,18*7E
$GPGSV,3,3,09,30,10,055,38*49
$BDGSV,2,1,05,01,49,130,42,03,62,189,42,04,32,111,42,08,65,170,42*6E
$BDGSV,2,2,05,12,46,185,42*56
$GNRMC,012927.000,A,2253.7220,N,11350.7026,E,0.00,0.00,140117,,,A*79
$GNVTG,0.00,T,,M,0.00,N,0.00,K,A*23
$GNZDA,012927.000,14,01,2017,00,00*47
$GPTXT,01,01,01,ANTENNA OK*35
$GNGGA,012928.000,2253.7220,N,11350.7026,E,1,11,1.5,44.9,M,0.0,M,,*4B
$GNGLL,2253.7220,N,11350.7026,E,012928.000,A,A*43
$GPGSA,A,3,05,13,02,30,15,24,,,,,,,2.2,1.5,1.7*34
$BDGSA,A,3,01,03,04,08,12,,,,,,,,2.2,1.5,1.7*2C
$GPGSV,3,1,09,02,42,119,48,05,38,041,46,06,05,128,38,13,73,038,39*7E
$GPGSV,3,2,09,15,68,245,23,20,45,325,21,24,15,180,29,29,47,277,18*7E
$GPGSV,3,3,09,30,10,055,38*49
$BDGSV,2,1,05,01,49,130,42,03,62,189,42,04,32,111,42,08,65,170,42*6E
$BDGSV,2,2,05,12,46,185,42*56
$GNRMC,012928.000,A,2253.7220,N,11350.7026,E,0.00,0.00,140117,,,A*76
$GNVTG,0.00,T,,M,0.00,N,0.00,K,A*23
$GNZDA,012928.000,14,01,2017,00,00*48
$GPTXT,01,01,01,ANTENNA OK*35
$GNGGA,012929.000,2253.7220,N,11350.7026,E,1,11,1.5,44.9,M,0.0,M,,*4A
$GNGLL,2253.7220,N,11350.7026,E,012929.000,A,A*42
$GPGSA,A,3,05,13,02,30,15,24,,,,,,,2.2,1.5,1.7*34
$BDGSA,A,3,01,03,04,08,12,,,,,,,,2.2,1.5,1.7*2C
$GPGSV,3,1,09,02,42,119,48,05,38,041,46,06,05,128,38,13,73,038,39*7E
$GPGSV,3,2,09,15,68,245,27,20,45,325,22,24,15,180,29,29,47,277,18*79
$GPGSV,3,3,09,30,10,055,38*49
$BDGSV,2,1,06,01,49,130,42,03,62,189,42,04,32,111,42,07,,,22*51
$BDGSV,2,2,06,08,65,170,42,12,46,185,42*6E
$GNRMC,012929.000,A,2253.7220,N,11350.7026,E,0.00,0.00,140117,,,A*77
$GNVTG,0.00,T,,M,0.00,N,0.00,K,A*23
$GNZDA,012929.000,14,01,2017,00,00*49
$GPTXT,01,01,01,ANTENNA OK*35
$GNGGA,012930.000,2253.7220,N,11350.7026,E,1,11,1.5,44.9,M,0.0,M,,*42
$GNGLL,2253.7220,N,11350.7026,E,012930.000,A,A*4A
$GPGSA,A,3,05,13,02,30,15,24,,,,,,,2.2,1.5,1.7*34
$BDGSA,A,3,01,03,04,08,12,,,,,,,,2.2,1.5,1.7*2C
$GPGSV,3,1,09,02,42,119,48,05,38,041,47,06,05,128,38,13,73,038,39*7F
$GPGSV,3,2,09,15,68,245,27,20,45,325,22,24,15,180,28,29,47,277,18*78
$GPGSV,3,3,09,30,10,055,38*49
$BDGSV,2,1,06,01,49,130,42,03,62,189,42,04,32,111,42,07,,,22*51
$BDGSV,2,2,06,08,65,170,42,12,46,185,42*6E
$GNRMC,012930.000,A,2253.7220,N,11350.7026,E,0.00,0.00,140117,,,A*7F
$GNVTG,0.00,T,,M,0.00,N,0.00,K,A*23
$GNZDA,012930.000,14,01,2017,00,00*41
$GPTXT,01,01,01,ANTENNA OK*35
$GNGGA,012931.000,2253.7220,N,11350.7026,E,1,11,1.5,44.9,M,0.0,M,,*43
$GNGLL,2253.7220,N,11350.7026,E,012931.000,A,A*4B
$GPGSA,A,3,05,13,02,30,15,24,,,,,,,2.2,1.5,1.7*34
$BDGSA,A,3,01,03,04,08,12,,,,,,,,2.2,1.5,1.7*2C
$GPGSV,3,1,09,02,42,119,48,05,38,041,47,06,05,128,38,13,73,038,39*7F
$GPGSV,3,2,09,15,68,245,27,20,45,325,22,24,15,180,28,29,47,277,18*78
$GPGSV,3,3,09,30,10,055,38*49
$BDGSV,2,1,06,01,49,130,42,03,62,189,42,04,32,111,42,07,,,22*51
$BDGSV,2,2,06,08,65,170,42,12,46,185,42*6E
$GNRMC,012931.000,A,2253.7220,N,11350.7026,E,0.00,0.00,140117,,,A*7E
$GNVTG,0.00,T,,M,0.00,N,0.00,K,A*23
$GNZDA,012931.000,14,01,2017,00,00*40
$GPTXT,01,01,01,ANTENNA OK*35
$GNGGA,012932.000,2253.7220,N,11350.7026,E,1,11,1.5,44.9,M,0.0,M,,*40
$GNGLL,2253.7220,N,11350.7026,E,012932.000,A,A*48
$GPGSA,A,3,05,13,02,30,15,24,,,,,,,2.2,1.5,1.7*34
$BDGSA,A,3,01,03,04,08,12,,,,,,,,2.2,1.5,1.7*2C
$GPGSV,3,1,09,02,42,119,48,05,38,041,47,06,05,128,38,13,73,038,38*7E
$GPGSV,3,2,09,15,68,245,24,20,45,325,22,24,15,180,28,29,47,277,18*7B
$GPGSV,3,3,09,30,10,05