$GNGGA,014235.000,2253.7213,N,11350.7011,E,1,12,1.2,40.2,M,0.0,M,,*45
$GNGLL,2253.7213,N,11350.7011,E,014235.000,A,A*46
$GPGSA,A,3,02,05,13,30,15,24,20,,,,,,2.0,1.2,1.6*32
$BDGSA,A,3,01,03,04,08,12,,,,,,,,2.0,1.2,1.6*28
$GPGSV,3,1,10,02,37,125,42,05,35,047,47,13,67,032,30,15,72,262,22*79
$GPGSV,3,2,10,18,07,282,,20,47,333,21,21,14,319,26,24,20,177,23*73
$GPGSV,3,3,10,29,47,268,,30,08,050,38*79
$BDGSV,2,1,05,01,49,130,42,03,62,189,42,04,32,111,42,08,62,175,42*6C
$BDGSV,2,2,05,12,40,184,42*51
$GNRMC,014235.000,A,2253.7213,N,11350.7011,E,0.00,81.94,140117,,,A*47
$GNVTG,81.94,T,,M,0.00,N,0.00,K,A*17
$GNZDA,014235.000,14,01,2017,00,00*49
$GPTXT,01,01,01,ANTENNA OK*35
$GNGGA,014236.000,2253.7213,N,11350.7011,E,1,12,1.2,40.2,M,0.0,M,,*46
$GNGLL,2253.7213,N,11350.7011,E,014236.000,A,A*45
$GPGSA,A,3,02,05,13,30,15,24,20,,,,,,2.0,1.2,1.6*32
$BDGSA,A,3,01,03,04,08,12,,,,,,,,2.0,1.2,1.6*28
$GPGSV,3,1,10,02,37,125,42,05,35,047,47,13,67,032,31,15,72,262,22*78
$GPGSV,3,2,10,18,07,282,,20,47,333,21,21,14,319,25,24,20,177,23*70
$GPGSV,3,3,10,29,47,268,,30,08,050,38*79
$BDGSV,2,1,05,01,49,130,42,03,62,189,42,04,32,111,42,08,62,175,42*6C
$BDGSV,2,2,05,12,40,184,42*51
$GNRMC,014236.000,A,2253.7213,N,11350.7011,E,0.00,81.94,140117,,,A*44
$GNVTG,81.94,T,,M,0.00,N,0.00,K,A*17
$GNZDA,014236.000,14,01,2017,00,00*4A
$GPTXT,01,01,01,ANTENNA OK*35
$GNGGA,014237.000,2253.7213,N,11350.7011,E,1,12,1.2,40.2,M,0.0,M,,*47
$GNGLL,2253.7213,N,11350.7011,E,014237.000,A,A*44
$GPGSA,A,3,02,05,13,30,15,24,20,,,,,,2.0,1.2,1.6*32
$BDGSA,A,3,01,03,04,08,12,,,,,,,,2.0,1.2,1.6*28
$GPGSV,3,1,10,02,37,125,43,05,35,047,47,13,67,032,31,15,72,262,22*79
$GPGSV,3,2,10,18,07,282,,20,47,333,23,21,14,319,25,24,20,177,21*70
$GPGSV,3,3,10,29,47,268,,30,08,050,38*79
$BDGSV,2,1,05,01,49,130,42,03,62,189,42,04,32,111,42,08,62,175,42*6C
$BDGSV,2,2,05,12,40,184,42*51
$GNRMC,014237.000,A,2253.7213,N,11350.7011,E,0.00,81.94,140117,,,A*45
$GNVTG,81.94,T,,M,0.00,N,0.00,K,A*17
$GNZDA,014237.000,14,01,2017,00,00*4B
$GPTXT,01,01,01,ANTENNA OK*35
$GNGGA,014238.000,2253.7213,N,11350.7011,E,1,12,1.2,40.2,M,0.0,M,,*48
$GNGLL,2253.7213,N,11350.7011,E,014238.000,A,A*4B
$GPGSA,A,3,02,05,13,30,15,24,20,,,,,,2.0,1.2,1.6*32
$BDGSA,A,3,01,03,04,08,12,,,,,,,,2.0,1.2,1.6*28
$GPGSV,3,1,10,02,37,125,43,05,35,047,47,13,67,032,31,15,72,262,22*79
$GPGSV,3,2,10,18,07,282,,20,47,333,23,21,14,319,25,24,20,177,21*70
$GPGSV,3,3,10,29,47,268,,30,08,050,38*79
$BDGSV,2,1,05,01,49,130,42,03,62,189,42,04,32,111,42,08,62,175,42*6C
$BDGSV,2,2,05,12,40,184,42*51
$GNRMC,014238.000,A,2253.7213,N,11350.7011,E,0.00,81.94,140117,,,A*4A
$GNVTG,81.94,T,,M,0.00,N,0.00,K,A*17
$GNZDA,014238.000,14,01,2017,00,00*44
$GPTXT,01,01,01,ANTENNA OK*35
$GNGGA,014239.000,2253.7213,N,11350.7011,E,1,12,1.2,40.2,M,0.0,M,,*49
$GNGLL,2253.7213,N,11350.7011,E,014239.000,A,A*4A
$GPGSA,A,3,02,05,13,30,15,24,20,,,,,,2.0,1.2,1.6*32
$BDGSA,A,3,01,03,04,08,12,,,,,,,,2.0,1.2,1.6*28
$GPGSV,3,1,10,02,37,125,43,05,35,047,47,13,67,032,32,15,72,262,22*7A
$GPGSV,3,2,10,18,07,282,,20,47,333,23,21,14,319,20,24,20,177,21*75
$GPGSV,3,3,10,29,47,268,,30,08,050,37*76
$BDGSV,2,1,05,01,49,130,42,03,62,189,42,04,32,111,42,08,62,175,42*6C
$BDGSV,2,2,05,12,40,184,42*51
$GNRMC,014239.000,A,2253.7213,N,11350.7011,E,0.00,81.94,140117,,,A*4B
$GNVTG,81.94,T,,M,0.00,N,0.00,K,A*17
$GNZDA,014239.000,14,01,2017,00,00*45
$GPTXT,01,01,01,ANTENNA OK*35
$GNGGA,014240.000,2253.7213,N,11350.7011,E,1,12,1.2,40.2,M,0.0,M,,*47
$GNGLL,2253.7213,N,11350.7011,E,014240.000,A,A*44
$GPGSA,A,3,02,05,13,30,15,24,20,,,,,,2.0,1.2,1.6*32
$BDGSA,A,3,01,03,04,08,12,,,,,,,,2.0,1.2,1.6*28
$GPGSV,3,1,10,02,37,125,43,05,35,047,46,13,67,032,32,15,72,262,22*7B
$GPGSV,3,2,10,18,07,282,,20,47,333,23,21,14,319,20,24,20,177,21*75
$GPGSV,3,3,10,29,47,268,,30,08,050,37*76
$BDGSV,2,1,05,01,49,130,42,03,62,189,42,04,32,111,42,08,62,175,42*6C
$BDGSV,2,2,05,12,40,184,42*51
$GNRMC,014240.000,A,2253.7213,N,11350.7011,E,0.00,81.94,140117,,,A*45
$GNVTG,81.94,T,,M,0.00,N,0.00,K,A*17
$GNZDA,014240.000,14,01,2017,00,00*4B
$GPTXT,01,01,01,ANTENNA OK*35
$GNGGA,014241.000,2253.7213,N,11350.7011,E,1,12,1.2,40.2,M,0.0,M,,*46
$GNGLL,2253.7213,N,11350.7011,E,014241.000,A,A*45
$GPGSA,A,3,02,05,13,30,15,24,20,,,,,,2.0,1.2,1.6*32
$BDGSA,A,3,01,03,04,08,12,,,,,,,,2.0,1.2,1.6*28
$GPGSV,3,1,10,02,37,125,43,05,35,047,46,13,67,032,32,15,72,262,22*7B
$GPGSV,3,2,10,18,07,282,,20,47,333,23,21,14,319,20,24,20,177,21*75
$GPGSV,3,3,10,29,47,267,,30,08,050,37*79
$BDGSV,2,1,05,01,49,130,42,03,62,189,42,04,32,111,42,08,62,175,42*6C
$BDGSV,2,2,05,12,40,184,42*51
$GNRMC,014241.000,A,2253.7213,N,11350.7011,E,0.00,81.94,140117,,,A*44
$GNVTG,81.94,T,,M,0.00,N,0.00,K,A*17
$GNZDA,014241.000,14,01,2017,00,00*4A
$GPTXT,01,01,01,ANTENNA OK*35
$GNGGA,014242.000,2253.7213,N,11350.7011,E,1,12,1.2,40.2,M,0.0,M,,*45
$GNGLL,2253.7213,N,11350.7011,E,014242.000,A,A*46
$GPGSA,A,3,02,05,13,30,15,24,20,,,,,,2.0,1.2,1.6*32
$BDGSA,A,3,01,03,04,08,12,,,,,,,,2.0,1.2,1.6*28
$GPGSV,3,1,10,02,37,125,43,05,35,047,46,13,67,032,32,15,72,262,22*7B
$GPGSV,3,2,10,18,07,282,,20,47,333,23,21,14,319,20,24,20,177,21*75
$GPGSV,3,3,10,29,47,267,,30,08,050,37*79
$BDGSV,2,1,05,01,49,130,42,03,62,189,42,04,32,111,42,08,62,175,42*6C
$BDGSV,2,2,05,12,40,184,42*51
$GNRMC,014242.000,A,2253.7213,N,11350.7011,E,0.00,81.94,140117,,,A*47
$GNVTG,81.94,T,,M,0.00,N,0.00,K,A*17
$GNZDA,014242.000,14,01,2017,00,00*49
$GPTXT,01,01,01,ANTENNA OK*35
$GNGGA,014243.000,2253.7213,N,11350.7011,E,1,12,1.2,40.2,M,0.0,M,,*44
$GNGLL,2253.7213,N,11350.7011,E,014243.000,A,A*47
$GPGSA,A,3,02,05,13,30,15,24,20,,,,,,2.0,1.2,1.6*32
$BDGSA,A,3,01,03,04,08,12,,,,,,,,2.0,1.2,1.6*28
$GPGSV,3,1,10,02,37,125,43,05,35,047,47,13,67,032,32,15,72,262,22*7A
$GPGSV,3,2,10,18,07,282,,20,47,333,23,21,14,319,20,24,20,177,23*77
$GPGSV,3,3,10,29,47,267,,30,08,050,37*79
$BDGSV,2,1,05,01,49,130,42,03,62,189,42,04,32,111,42,08,62,175,42*6C
$BDGSV,2,2,05,12,40,184,42*51
$GNRMC,014243.000,A,2253.7213,N,11350.7011,E,0.00,81.94,140117,,,A*46
$GNVTG,81.94,T,,M,0.00,N,0.00,K,A*17
$GNZDA,014243.000,14,01,2017,00,00*48
$GPTXT,01,01,01,ANTENNA OK*35
$GNGGA,014244.000,2253.7213,N,11350.7011,E,1,12,1.2,40.2,M,0.0,M,,*43
$GNGLL,2253.7213,N,11350.7011,E,014244.000,A,A*40
$GPGSA,A,3,02,05,13,30,15,24,20,,,,,,2.0,1.2,1.6*32
$BDGSA,A,3,01,03,04,08,12,,,,,,,,2.0,1.2,1.6*28
$GPGSV,3,1,10,02,37,125,42,05,35,047,47,13,67,032,32,15,72,262,22*7B
$GPGSV,3,2,10,18,07,282,,20,47,333,21,21,14,319,20,24,20,177,23*75
$GPGSV,3,3,10,29,47,267,,30,08,050,38*76
$BDGSV,2,1,05,01,49,130,42,03,62,189,42,04,32,111,42,08,62,175,42*6C
$BDGSV,2,2,05,12,40,184,42*51
$GNRMC,014244.000,A,2253.7213,N,11350.7011,E,0.00,81.94,140117,,,A*41
$GNVTG,81.94,T,,M,0.00,N,0.00,K,A*17
$GNZDA,014244.000,14,01,2017,00,00*4F
$GPTXT,01,01,01,ANTENNA OK*35
$GNGGA,014245.000,2253.7213,N,11350.7011,E,1,12,1.2,40.2,M,0.0,M,,*42
$GNGLL,2253.7213,N,11350.7011,E,014245.000,A,A*41
$GPGSA,A,3,02,05,13,30,15,24,20,,,,,,2.0,1.2,1.6*32
$BDGSA,A,3,01,03,04,08,12,,,,,,,,2.0,1.2,1.6*28
$GPGSV,3,1,10,02,37,125,42,05,35,047,47,13,67,032,33,15,72,262,22*7A
$GPGSV,3,2,10,18,07,282,,20,47,333,21,21,14,319,22,24,20,177,26*72
$GPGSV,3,3,10,29,47,267,,30,08,050,38*76
$BDGSV,2,1,05,01,49,130,42,03,62,189,42,04,32,111,42,08,62,175,42*6C
$BDGSV,2,2,05,12,40,184,42*51
$GNRMC,014245.000,A,2253.7213,N,11350.7011,E,0.07,81.94,140117,,,A*47
$GNVTG,81.94,T,,M,0.07,N,0.14,K,A*15
$GNZDA,014245.000,14,01,2017,00,00*4E
$GPTXT,01,01,01,ANTENNA OK*35
$GNGGA,014246.000,2253.7213,N,11350.7011,E,1,12,1.2,40.2,M,0.0,M,,*41
$GNGLL,2253.7213,N,11350.7011,E,014246.000,A,A*42
$GPGSA,A,3,02,05,13,30,15,24,20,,,,,,2.0,1.2,1.6*32
$BDGSA,A,3,01,03,04,08,12,,,,,,,,2.0,1.2,1.6*28
$GPGSV,3,1,10,02,37,125,42,05,35,047,47,13,67,032,33,15,72,262,22*7A
$GPGSV,3,2,10,18,07,282,,20,47,333,21,21,14,319,22,24,20,177,26*72
$GPGSV,3,3,10,29,47,267,,30,08,050,37*79
$BDGSV,2,1,05,01,49,130,42,03,62,189,42,04,32,111,42,08,62,175,42*6C
$BDGSV,2,2,05,12,40,184,42*51
$GNRMC,014246.000,A,2253.7213,N,11350.7011,E,0.00,81.94,140117,,,A*43
$GNVTG,81.94,T,,M,0.00,N,0.00,K,A*17
$GNZDA,014246.000,14,01,2017,00,00*4D
$GPTXT,01,01,01,ANTENNA OK*35
$GNGGA,014247.000,2253.7213,N,11350.7011,E,1,12,1.2,40.2,M,0.0,M,,*40
$GNGLL,2253.7213,N,11350.7011,E,014247.000,A,A*43
$GPGSA,A,3,02,05,13,30,15,24,20,,,,,,2.0,1.2,1.6*32
$BDGSA,A,3,01,03,04,08,12,,,,,,,,2.0,1.2,1.6*28
$GPGSV,3,1,10,02,37,125,43,05,35,047,47,13,67,032,33,15,72,262,22*7B
$GPGSV,3,2,10,18,07,282,,20,47,333,21,21,14,319,25,24,20,177,26*75
$GPGSV,3,3,10,29,47,267,,30,08,050,37*79
$BDGSV,2,1,05,01,49,130,42,03,62,189,42,04,32,111,42,08,62,175,42*6C
$BDGSV,2,2,05,12,40,184,41*52
$GNRMC,014247.000,A,2253.7213,N,11350.7011,E,0.00,81.94,140117,,,A*42
$GNVTG,81.94,T,,M,0.00,N,0.00,K,A*17
$GNZDA,014247.000,14,01,2017,00,00*4C
$GPTXT,01,01,01,ANTENNA OK*35
$GNGGA,014248.000,2253.7213,N,11350.7011,E,1,12,1.2,40.2,M,0.0,M,,*4F
$GNGLL,2253.7213,N,11350.7011,E,014248.000,A,A*4C
$GPGSA,A,3,02,05,13,30,15,24,20,,,,,,2.0,1.2,1.6*32
$BDGSA,A,3,01,03,04,08,12,,,,,,,,2.0,1.2,1.6*28
$GPGSV,3,1,10,02,37,125,43,05,35,047,47,13,67,032,34,15,72,262,22*7C
$GPGSV,3,2,10,18,07,282,,20,47,333,21,21,14,319,25,24,20,177,28*7B
$GPGSV,3,3,10,29,47,267,,30,08,050,37*79
$BDGSV,2,1,05,01,49,130,42,03,62,189,42,04,32,111,42,08,62,175,42*6C
$BDGSV,2,2,05,12,40,184,41*52
$GNRMC,014248.000,A,2253.7213,N,11350.7011,E,0.00,81.94,140117,,,A*4D
$GNVTG,81.94,T,,M,0.00,N,0.00,K,A*17
$GNZDA,014248.000,14,01,2017,00,00*43
$GPTXT,01,01,01,ANTENNA OK*35
$GNGGA,014249.000,2253.7213,N,11350.7011,E,1,12,1.2,40.2,M,0.0,M,,*4E
$GNGLL,2253.7213,N,11350.7011,E,014249.000,A,A*4D
$GPGSA,A,3,02,05,13,30,15,24,20,,,,,,2.0,1.2,1.6*32
$BDGSA,A,3,01,03,04,08,12,,,,,,,,2.0,1.2,1.6*28
$GPGSV,3,1,10,02,37,125,44,05,35,047,47,13,67,032,34,15,72,262,22*7B
$GPGSV,3,2,10,18,07,282,,20,47,333,21,21,14,319,25,24,20,177,28*7B
$GPGSV,3,3,10,29,47,267,,30,08,050,37*79
$BDGSV,2,1,05,01,49,130,42,03,62,189,42,04,32,111,42,08,62,175,42*6C
$BDGSV,2,2,05,12,40,184,42*51
$GNRMC,014249.000,A,2253.7213,N,11350.7011,E,0.00,81.94,140117,,,A*4C
$GNVTG,81.94,T,,M,0.00,N,0.00,K,A*17
$GNZDA,014249.000,14,01,2017,00,00*42
$GPTXT,01,01,01,ANTENNA OK*35
$GNGGA,014250.000,2253.7213,N,11350.7011,E,1,12,1.2,40.2,M,0.0,M,,*46
$GNGLL,2253.7213,N,11350.7011,E,014250.000,A,A*45
$GPGSA,A,3,02,05,13,30,15,24,20,,,,,,2.0,1.2,1.6*32
$BDGSA,A,3,01,03,04,08,12,,,,,,,,2.0,1.2,1.6*28
$GPGSV,3,1,10,02,37,125,44,05,35,047,47,13,67,032,34,15,72,262,22*7B
$GPGSV,3,2,10,18,07,282,,20,47,333,21,21,14,319,25,24,20,177,28*7B
$GPGSV,3,3,10,29,47,267,,30,08,050,37*79
$BDGSV,2,1,05,01,49,130,42,03,62,189,42,04,32,111,42,08,62,175,42*6C
$BDGSV,2,2,05,12,40,184,42*51
$GNRMC,014250.000,A,2253.7213,N,11350.7011,E,0.00,81.94,140117,,,A*44
$GNVTG,81.94,T,,M,0.00,N,0.00,K,A*17
$GNZDA,014250.000,14,01,2017,00,00*4A
$GPTXT,01,01,01,ANTENNA OK*35
$GNGGA,014251.000,2253.7213,N,11350.7011,E,1,12,1.2,40.2,M,0.0,M,,*47
$GNGLL,2253.7213,N,11350.7011,E,014251.000,A,A*44
$GPGSA,A,3,02,05,13,30,15,24,20,,,,,,2.0,1.2,1.6*32
$BDGSA,A,3,01,03,04,08,12,,,,,,,,2.0,1.2,1.6*28
$GPGSV,3,1,10,02,37,125,44,05,35,047,47,13,67,032,35,15,72,262,22*7A
$GPGSV,3,2,10,18,07,282,,20,47,333,21,21,14,319,25,24,20,177,28*7B
$GPGSV,3,3,10,29,47,267,,30,08,050,37*79
$BDGSV,2,1,05,01,49,130,42,03,62,189,42,04,32,111,42,08,62,175,42*6C
$BDGSV,2,2,05,12,40,184,42*51
$GNRMC,014251.000,A,2253.7213,N,11350.7011,E,0.00,81.94,140117,,,A*45
$GNVTG,81.94,T,,M,0.00,N,0.00,K,A*17
$GNZDA,014251.000,14,01,2017,00,00*4B
$GPTXT,01,01,01,ANTENNA OK*35
$GNGGA,014252.000,2253.7213,N,11350.7011,E,1,12,1.2,40.2,M,0.0,M,,*44
$GNGLL,2253.7213,N,11350.7011,E,014252.000,A,A*47
$GPGSA,A,3,02,05,13,30,15,24,20,,,,,,2.0,1.2,1.6*32
$BDGSA,A,3,01,03,04,08,12,,,,,,,,2.0,1.2,1.6*28
$GPGSV,3,1,10,02,37,125,44,05,35,047,47,13,67,032,35,15,72,262,22*7A
$GPGSV,3,2,10,18,07,282,,20,47,333,18,21,14,319,25,24,20,177,28*71
$GPGSV,3,3,10,29,47,267,,30,08,050,37*79
$BDGSV,2,1,05,01,49,130,42,03,62,189,42,04,32,111,42,08,62,175,42*6C
$BDGSV,2,2,05,12,40,184,42*51
$GNRMC,014252.000,A,2253.7213,N,11350.7011,E,0.00,81.94,140117,,,A*46
$GNVTG,81.94,T,,M,0.00,N,0.00,K,A*17
$GNZDA,014252.000,14,01,2017,00,00*48
$GPTXT,01,01,01,ANTENNA OK*35
$GNGGA,014253.000,2253.7213,N,11350.7011,E,1,12,1.2,40.2,M,0.0,M,,*45
$GNGLL,2253.7213,N,11350.7011,E,014253.000,A,A*46
$GPGSA,A,3,02,05,13,30,15,24,20,,,,,,2.0,1.2,1.6*32
$BDGSA,A,3,01,03,04,08,12,,,,,,,,2.0,1.2,1.6*28
$GPGSV,3,1,10,02,37,125,44,05,35,047,47,13,67,032,35,15,72,262,22*7A
$GPGSV,3,2,10,18,07,282,,20,47,333,18,21,14,319,25,24,20,177,29*70
$GPGSV,3,3,10,29,47,267,,30,08,050,37*79
$BDGSV,2,1,06,01,49,130,42,03,62,189,42,04,32,111,42,08,62,175,42*6F
$BDGSV,2,2,06,12,40,184,42,14,,,28*5D
$GNRMC,014253.000,A,2253.7213,N,11350.7011,E,0.00,81.94,140117,,,A*47
$GNVTG,81.94,T,,M,0.00,N,0.00,K,A*17
$GNZDA,014253.000,14,01,2017,00,00*49
$GPTXT,01,01,01,ANTENNA OK*35
$GNGGA,014254.000,2253.7213,N,11350.7011,E,1,12,1.2,40.2,M,0.0,M,,*42
$GNGLL,2253.7213,N,11350.7011,E,014254.000,A,A*41
$GPGSA,A,3,02,05,13,30,15,24,20,,,,,,2.0,1.2,1.6*32
$BDGSA,A,3,01,03,04,08,12,,,,,,,,2.0,1.2,1.6*28
$GPGSV,3,1,10,02,37,125,43,05,35,047,47,13,67,032,35,15,72,262,22*7D
$GPGSV,3,2,10,18,07,282,,20,47,333,18,21,14,319,25,24,20,177,29*70
$GPGSV,3,3,10,29,47,267,,30,08,050,37*79
$BDGSV,2,1,06,01,49,130,42,03,62,189,42,04,32,111,42,08,62,175,42*6F
$BDGSV,2,2,06,12,40,184,41,14,,,28*5E
$GNRMC,014254.000,A,2253.7213,N,11350.7011,E,0.00,81.94,140117,,,A*40
$GNVTG,81.94,T,,M,0.00,N,0.00,K,A*17
$GNZDA,014254.000,14,01,2017,00,00*4E
$GPTXT,01,01,01,ANTENNA OK*35
$GNGGA,014255.000,2253.7213,N,11350.7011,E,1,11,1.5,40.2,M,0.0,M,,*47
$GNGLL,2253.7213,N,11350.7011,E,014255.000,A,A*40
$GPGSA,A,3,02,05,13,30,15,24,,,,,,,2.2,1.5,1.7*34
$BDGSA,A,3,01,03,04,08,12,,,,,,,,2.2,1.5,1.7*2C
$GPGSV,3,1,10,02,37,125,43,05,35,047,47,13,67,032,36,15,72,262,22*7E
$GPGSV,3,2,10,18,07,282,,20,47,333,03,21,14,319,25,24,20,177,29*7A
$GPGSV,3,3,10,29,47,267,,30,08,050,37*79
$BDGSV,2,1,06,01,49,130,42,03,62,189,42,04,32,111,42,08,62,175,42*6F
$BDGSV,2,2,06,12,40,184,41,14,,,28*5E
$GNRMC,014255.000,A,2253.7213,N,11350.7011,E,0.00,81.94,140117,,,A*41
$GNVTG,81.94,T,,M,0.00,N,0.00,K,A*17
$GNZDA,014255.000,14,01,2017,00,00*4F
$GPTXT,01,01,01,ANTENNA OK*35
$GNGGA,014256.000,2253.7213,N,11350.7011,E,1,11,1.5,40.2,M,0.0,M,,*44
$GNGLL,2253.7213,N,11350.7011,E,014256.000,A,A*43
$GPGSA,A,3,02,05,13,30,15,24,,,,,,,2.2,1.5,1.7*34
$BDGSA,A,3,01,03,04,08,12,,,,,,,,2.2,1.5,1.7*2C
$GPGSV,3,1,10,02,37,125,43,05,35,047,47,13,67,032,36,15,72,262,22*7E
$GPGSV,3,2,10,18,07,282,,20,47,333,03,21,14,319,25,24,20,177,29*7A
$GPGSV,3,3,10,29,47,267,,30,08,050,37*79
$BDGSV,2,1,06,01,49,130,42,03,62,189,42,04,32,111,42,08,62,175,42*6F
$BDGSV,2,2,06,12,40,184,41,14,,,28*5E
$GNRMC,014256.000,A,2253.7213,N,11350.7011,E,0.00,81.94,140117,,,A*42
$GNVTG,81.94,T,,M,0.00,N,0.00,K,A*17
$GNZDA,014256.000,14,01,2017,00,00*4C
$GPTXT,01,01,01,ANTENNA OK*35
$GNGGA,014257.000,2253.7213,N,11350.7011,E,1,11,1.5,40.2,M,0.0,M,,*45
$GNGLL,2253.7213,N,11350.7011,E,014257.000,A,A*42
$GPGSA,A,3,02,05,13,30,15,24,,,,,,,2.2,1.5,1.7*34
$BDGSA,A,3,01,03,04,08,12,,,,,,,,2.2,1.5,1.7*2C
$GPGSV,3,1,10,02,37,125,42,05,35,047,47,13,67,032,36,15,72,262,22*7F
$GPGSV,3,2,10,18,07,282,,20,47,333,03,21,14,319,24,24,20,177,29*7B
$GPGSV,3,3,10,29,47,267,,30,08,050,37*79
$BDGSV,2,1,06,01,49,130,42,03,62,189,42,04,32,111,42,08,62,175,42*6F
$BDGSV,2,2,06,12,40,184,42,14,,,28*5D
$GNRMC,014257.000,A,2253.7213,N,11350.7011,E,0.00,81.94,140117,,,A*43
$GNVTG,81.94,T,,M,0.00,N,0.00,K,A*17
$GNZDA,014257.000,14,01,2017,00,00*4D
$GPTXT,01,01,01,ANTENNA OK*35
$GNGGA,014258.000,2253.7213,N,11350.7011,E,1,11,1.5,40.2,M,0.0,M,,*4A
$GNGLL,2253.7213,N,11350.7011,E,014258.000,A,A*4D
$GPGSA,A,3,02,05,13,30,15,24,,,,,,,2.2,1.5,1.7*34
$BDGSA,A,3,01,03,04,08,12,,,,,,,,2.2,1.5,1.7*2C
$GPGSV,3,1,10,02,37,125,42,05,35,047,48,13,67,032,35,15,72,262,22*73
$GPGSV,3,2,10,18,07,282,,20,47,333,03,21,14,319,24,24,20,177,29*7B
$GPGSV,3,3,10,29,47,267,,30,08,050,37*79
$BDGSV,2,1,06,01,49,130,42,03,62,189,42,04,32,111,42,08,62,175,43*6E
$BDGSV,2,2,06,12,40,184,42,14,,,28*5D
$GNRMC,014258.000,A,2253.7213,N,11350.7011,E,0.00,81.94,140117,,,A*4C
$GNVTG,81.94,T,,M,0.00,N,0.00,K,A*17
$GNZDA,014258.000,14,01,2017,00,00*42
$GPTXT,01,01,01,ANTENNA OK*35
$GNGGA,014259.000,2253.7213,N,11350.7011,E,1,13,1.1,40.2,M,0.0,M,,*4D
$GNGLL,2253.7213,N,11350.7011,E,014259.000,A,A*4C
$GPGSA,A,3,02,05,13,30,15,24,20,29,,,,,1.9,1.1,1.6*30
$BDGSA,A,3,01,03,04,08,12,,,,,,,,1.9,1.1,1.6*21
$GPGSV,3,1,10,02,37,125,43,05,35,047,48,13,67,032,35,15,72,263,22*73
$GPGSV,3,2,10,18,07,282,,20,47,333,13,21,14,319,24,24,20,177,29*7A
$GPGSV,3,3,10,29,47,267,25,30,08,050,38*71
$BDGSV,2,1,06,01,49,130,42,03,62,189,42,04,32,111,42,08,62,175,43*6E
$BDGSV,2,2,06,12,40,184,41,14,,,28*5E
$GNRMC,014259.000,A,2253.7213,N,11350.7011,E,0.00,81.94,140117,,,A*4D
$GNVTG,81.94,T,,M,0.00,N,0.00,K,A*17
$GNZDA,014259.000,14,01,2017,00,00*43
$GPTXT,01,01,01,ANTENNA OK*35
$GNGGA,014300.000,2253.7213,N,11350.7011,E,1,13,1.1,40.2,M,0.0,M,,*40
$GNGLL,2253.7213,N,11350.7011,E,014300.000,A,A*41
$GPGSA,A,3,02,05,13,30,15,24,20,29,,,,,1.9,1.1,1.6*30
$BDGSA,A,3,01,03,04,08,12,,,,,,,,1.9,1.1,1.6*21
$GPGSV,3,1,10,02,37,125,43,05,35,047,48,13,67,032,35,15,72,263,22*73
$GPGSV,3,2,10,18,07,282,,20,47,333,13,21,14,319,24,24,20,177,29*7A
$GPGSV,3,3,10,29,47,267,25,30,08,050,38*71
$BDGSV,2,1,06,01,49,130,42,03,62,189,42,04,32,111,42,08,62,175,43*6E
$BDGSV,2,2,06,12,40,184,41,14,,,27*51
$GNRMC,014300.000,A,2253.7213,N,11350.7011,E,0.00,81.94,140117,,,A*40
$GNVTG,81.94,T,,M,0.00,N,0.00,K,A*17
$GNZDA,014300.000,14,01,2017,00,00*4E
$GPTXT,01,01,01,ANTENNA OK*35
$GNGGA,014301.000,2253.7213,N,11350.7011,E,1,13,1.1,40.2,M,0.0,M,,*41
$GNGLL,2253.7213,N,11350.7011,E,014301.000,A,A*40
$GPGSA,A,3,02,05,13,30,15,24,20,29,,,,,1.9,1.1,1.6*30
$BDGSA,A,3,01,03,04,08,12,,,,,,,,1.9,1.1,1.6*21
$GPGSV,3,1,10,02,37,125,44,05,35,047,48,13,67,032,35,15,72,263,22*74
$GPGSV,3,2,10,18,07,282,,20,47,333,13,21,14,319,24,24,20,177,29*7A
$GPGSV,3,3,10,29,47,267,25,30,08,050,38*71
$BDGSV,2,1,06,01,49,130,42,03,62,189,42,04,32,111,42,08,61,175,42*6C
$BDGSV,2,2,06,12,40,184,41,14,,,27*51
$GNRMC,014301.000,A,2253.7213,N,11350.7011,E,0.00,81.94,140117,,,A*41
$GNVTG,81.94,T,,M,0.00,N,0.00,K,A*17
$GNZDA,014301.000,14,01,2017,00,00*4F
$GPTXT,01,01,01,ANTENNA OK*35
$GNGGA,014302.000,2253.7213,N,11350.7011,E,1,13,1.1,40.2,M,0.0,M,,*42
$GNGLL,2253.7213,N,11350.7011,E,014302.000,A,A*43
$GPGSA,A,3,02,05,13,30,15,24,20,29,,,,,1.9,1.1,1.6*30
$BDGSA,A,3,01,03,04,08,12,,,,,,,,1.9,1.1,1.6*21
$GPGSV,3,1,10,02,37,125,44,05,35,048,48,13,67,032,35,15,72,263,22*7B
$GPGSV,3,2,10,18,07,282,,20,47,333,13,21,14,319,24,24,20,177,29*7A
$GPGSV,3,3,10,29,47,267,25,30,08,050,38*71
$BDGSV,2,1,06,01,49,130,42,03,62,189,42,04,32,111,42,08,61,175,42*6C
$BDGSV,2,2,06,12,40,184,42,14,,,27*52
$GNRMC,014302.000,A,2253.7213,N,11350.7011,E,0.00,81.94,140117,,,A*42
$GNVTG,81.94,T,,M,0.00,N,0.00,K,A*17
$GNZDA,014302.000,14,01,2017,00,00*4C
$GPTXT,01,01,01,ANTENNA OK*35
$GNGGA,014303.000,2253.7213,N,11350.7011,E,1,13,1.1,40.2,M,0.0,M,,*43
$GNGLL,2253.7213,N,11350.7011,E,014303.000,A,A*42
$GPGSA,A,3,02,05,13,30,15,24,20,29,,,,,1.9,1.1,1.6*30
$BDGSA,A,3,01,03,04,08,12,,,,,,,,1.9,1.1,1.6*21
$GPGSV,3,1,10,02,37,125,44,05,35,048,48,13,67,032,35,15,72,263,22*7B
$GPGSV,3,2,10,18,07,282,,20,47,333,13,21,14,319,24,24,20,177,29*7A
$GPGSV,3,3,10,29,47,267,25,30,08,049,38*79
$BDGSV,2,1,06,01,49,130,42,03,62,189,42,04,32,111,42,08,61,175,42*6C
$BDGSV,2,2,06,12,40,184,42,14,,,24*51
$GNRMC,014303.000,A,2253.7213,N,11350.7011,E,0.00,81.94,140117,,,A*43
$GNVTG,81.94,T,,M,0.00,N,0.00,K,A*17
$GNZDA,014303.000,14,01,2017,00,00*4D
$GPTXT,01,01,01,ANTENNA OK*35
$GNGGA,014304.000,2253.7213,N,11350.7011,E,1,13,1.1,40.2,M,0.0,M,,*44
$GNGLL,2253.7213,N,11350.7011,E,014304.000,A,A*45
$GPGSA,A,3,02,05,13,30,15,24,20,29,,,,,1.9,1.1,1.6*30
$BDGSA,A,3,01,03,04,08,12,,,,,,,,1.9,1.1,1.6*21
$GPGSV,3,1,10,02,37,125,44,05,35,048,48,13,67,032,35,15,72,263,22*7B
$GPGSV,3,2,10,18,07,282,,20,47,333,18,21,14,319,22,24,20,177,29*77
$GPGSV,3,3,10,29,47,267,25,30,08,049,38*79
$BDGSV,2,1,06,01,49,130,42,03,62,189,42,04,32,111,42,08,61,175,42*6C
$BDGSV,2,2,06,12,40,184,41,14,,,24*52
$GNRMC,014304.000,A,2253.7213,N,11350.7011,E,0.00,81.94,140117,,,A*44
$GNVTG,81.94,T,,M,0.00,N,0.00,K,A*17
$GNZDA,014304.000,14,01,2017,00,00*4A
$GPTXT,01,01,01,ANTENNA OK*35
$GNGGA,014305.000,2253.7213,N,11350.7011,E,1,13,1.1,40.2,M,0.0,M,,*45
$GNGLL,2253.7213,N,11350.7011,E,014305.000,A,A*44
$GPGSA,A,3,02,05,13,30,15,24,20,29,,,,,1.9,1.1,1.6*30
$BDGSA,A,3,01,03,04,08,12,,,,,,,,1.9,1.1,1.6*21
$GPGSV,3,1,10,02,37,125,44,05,35,048,48,13,67,032,35,15,72,263,22*7B
$GPGSV,3,2,10,18,07,282,,20,47,333,18,21,14,319,22,24,20,177,29*77
$GPGSV,3,3,10,29,47,267,26,30,08,049,38*7A
$BDGSV,2,1,06,01,49,130,42,03,62,189,42,04,32,111,42,08,61,175,42*6C
$BDGSV,2,2,06,12,40,184,41,14,,,24*52
$GNRMC,014305.000,A,2253.7213,N,11350.7011,E,0.00,81.94,140117,,,A*45
$GNVTG,81.94,T,,M,0.00,N,0.00,K,A*17
$GNZDA,014305.000,14,01,2017,00,00*4B
$GPTXT,01,01,01,ANTENNA OK*35
$GNGGA,014306.000,2253.7213,N,11350.7011,E,1,13,1.1,40.2,M,0.0,M,,*46
$GNGLL,2253.7213,N,11350.7011,E,014306.000,A,A*47
$GPGSA,A,3,02,05,13,30,15,24,20,29,,,,,1.9,1.1,1.6*30
$BDGSA,A,3,01,03,04,08,12,,,,,,,,1.9,1.1,1.6*21
$GPGSV,3,1,10,02,37,125,44,05,35,048,48,13,67,032,35,15,72,263,22*7B
$GPGSV,3,2,10,18,07,282,,20,47,333,18,21,14,319,22,24,20,177,29*77
$GPGSV,3,3,10,29,47,267,26,30,08,049,38*7A
$BDGSV,2,1,06,01,49,130,42,03,62,189,42,04,32,111,42,08,61,175,42*6C
$BDGSV,2,2,06,12,40,184,41,14,,,19*5C
$GNRMC,014306.000,A,2253.7213,N,11350.7011,E,0.00,81.94,140117,,,A*46
$GNVTG,81.94,T,,M,0.00,N,0.00,K,A*17
$GNZDA,014306.000,14,01,2017,00,00*48
$GPTXT,01,01,01,ANTENNA OK*35
$GNGGA,014307.000,2253.7213,N,11350.7011,E,1,13,1.1,40.2,M,0.0,M,,*47
$GNGLL,2253.7213,N,11350.7011,E,014307.000,A,A*46
$GPGSA,A,3,02,05,13,30,15,24,20,29,,,,,1.9,1.1,1.6*30
$BDGSA,A,3,01,03,04,08,12,,,,,,,,1.9,1.1,1.6*21
$GPGSV,3,1,10,02,37,125,44,05,35,048,48,13,67,032,35,15,72,263,22*7B
$GPGSV,3,2,10,18,07,282,,20,47,333,18,21,14,319,22,24,20,177,28*76
$GPGSV,3,3,10,29,47,267,26,30,08,049,38*7A
$BDGSV,2,1,06,01,49,130,42,03,62,189,42,04,32,111,42,08,61,175,42*6C
$BDGSV,2,2,06,12,40,184,41,14,,,19*5C
$GNRMC,014307.000,A,2253.7213,N,11350.7011,E,0.00,81.94,140117,,,A*47
$GNVTG,81.94,T,,M,0.00,N,0.00,K,A*17
$GNZDA,014307.000,14,01,2017,00,00*49
$GPTXT,01,01,01,ANTENNA OK*35
$GNGGA,014308.000,2253.7213,N,11350.7011,E,1,13,1.1,40.2,M,0.0,M,,*48
$GNGLL,2253.7213,N,11350.7011,E,014308.000,A,A*49
$GPGSA,A,3,02,05,13,30,15,24,20,29,,,,,1.9,1.1,1.6*30
$BDGSA,A,3,01,03,04,08,12,,,,,,,,1.9,1.1,1.6*21
$GPGSV,3,1,10,02,37,125,44,05,35,048,47,13,67,032,35,15,72,263,22*74
$GPGSV,3,2,10,18,07,282,,20,47,333,18,21,14,319,22,24,20,177,28*76
$GPGSV,3,3,10,29,47,267,26,30,08,049,38*7A
$BDGSV,2,1,06,01,49,130,42,03,62,189,42,04,32,111,42,08,61,175,42*6C
$BDGSV,2,2,06,12,40,184,41,14,,,19*5C
$GNRMC,014308.000,A,2253.7213,N,11350.7011,E,0.00,81.94,140117,,,A*48
$GNVTG,81.94,T,,M,0.00,N,0.00,K,A*17
$GNZDA,014308.000,14,01,2017,00,00*46
$GPTXT,01,01,01,ANTENNA OK*35
$GNGGA,014309.000,2253.7213,N,11350.7011,E,1,13,1.1,40.2,M,0.0,M,,*49
$GNGLL,2253.7213,N,11350.7011,E,014309.000,A,A*48
$GPGSA,A,3,02,05,13,30,15,24,20,29,,,,,1.9,1.1,1.6*30
$BDGSA,A,3,01,03,04,08,12,,,,,,,,1.9,1.1,1.6*21
$GPGSV,3,1,10,02,37,125,44,05,35,048,47,13,67,032,36,15,72,263,22*77
$GPGSV,3,2,10,18,07,282,,20,47,333,21,21,14,319,22,24,20,177,28*7C
$GPGSV,3,3,10,29,47,267,26,30,08,049,38*7A
$BDGSV,2,1,06,01,49,130,42,03,62,189,42,04,32,111,42,08,61,175,43*6D
$BDGSV,2,2,06,12,40,184,41,14,,,19*5C
$GNRMC,014309.000,A,2253.7213,N,11350.7011,E,0.00,81.94,140117,,,A*49
$GNVTG,81.94,T,,M,0.00,N,0.00,K,A*17
$GNZDA,014309.000,14,01,2017,00,00*47
$GPTXT,01,01,01,ANTENNA OK*35
$GNGGA,014310.000,2253.7213,N,11350.7011,E,1,13,1.1,40.2,M,0.0,M,,*41
$GNGLL,2253.7213,N,11350.7011,E,014310.000,A,A*40
$GPGSA,A,3,02,05,13,30,15,24,20,29,,,,,1.9,1.1,1.6*30
$BDGSA,A,3,01,03,04,08,12,,,,,,,,1.9,1.1,1.6*21
$GPGSV,3,1,10,02,37,125,44,05,35,048,47,13,67,032,36,15,72,263,22*77
$GPGSV,3,2,10,18,07,282,,20,47,333,21,21,14,319,22,24,20,177,28*7C
$GPGSV,3,3,10,29,47,267,26,30,08,049,39*7B
$BDGSV,2,1,06,01,49,130,42,03,62,189,42,04,32,111,42,08,61,175,43*6D
$BDGSV,2,2,06,12,40,184,41,14,,,19*5C
$GNRMC,014310.000,A,2253.7213,N,11350.7011,E,0.00,81.94,140117,,,A*41
$GNVTG,81.94,T,,M,0.00,N,0.00,K,A*17
$GNZDA,014310.000,14,01,2017,00,00*4F
$GPTXT,01,01,01,ANTENNA OK*35
$GNGGA,014311.000,2253.7213,N,11350.7011,E,1,13,1.1,40.2,M,0.0,M,,*40
$GNGLL,2253.7213,N,11350.7011,E,014311.000,A,A*41
$GPGSA,A,3,02,05,13,30,15,24,20,29,,,,,1.9,1.1,1.6*30
$BDGSA,A,3,01,03,04,08,12,,,,,,,,1.9,1.1,1.6*21
$GPGSV,3,1,10,02,37,125,45,05,35,048,48,13,67,032,36,15,72,263,22*79
$GPGSV,3,2,10,18,07,282,,20,47,333,25,21,14,319,22,24,20,177,28*78
$GPGSV,3,3,10,29,47,267,26,30,08,049,39*7B
$BDGSV,2,1,06,01,49,130,42,03,62,189,42,04,32,111,42,08,61,175,43*6D
$BDGSV,2,2,06,12,40,184,41,14,,,19*5C
$GNRMC,014311.000,A,2253.7213,N,11350.7011,E,0.00,81.94,140117,,,A*40
$GNVTG,81.94,T,,M,0.00,N,0.00,K,A*17
$GNZDA,014311.000,14,01,2017,00,00*4E
$GPTXT,01,01,01,ANTENNA OK*35
$GNGGA,014312.000,2253.7213,N,11350.7011,E,1,13,1.1,40.2,M,0.0,M,,*43
$GNGLL,2253.7213,N,11350.7011,E,014312.000,A,A*42
$GPGSA,A,3,02,05,13,30,15,24,20,29,,,,,1.9,1.1,1.6*30
$BDGSA,A,3,01,03,04,08,12,,,,,,,,1.9,1.1,1.6*21
$GPGSV,3,1,10,02,37,125,45,05,35,048,48,13,67,032,36,15,72,263,22*79
$GPGSV,3,2,10,18,07,282,,20,47,333,25,21,14,319,22,24,20,177,27*77
$GPGSV,3,3,10,29,47,267,26,30,08,049,39*7B
$BDGSV,2,1,06,01,49,130,42,03,62,189,42,04,32,111,42,08,61,175,43*6D
$BDGSV,2,2,06,12,40,184,41,14,,,19*5C
$GNRMC,014312.000,A,2253.7213,N,11350.7011,E,0.00,81.94,140117,,,A*43
$GNVTG,81.94,T,,M,0.00,N,0.00,K,A*17
$GNZDA,014312.000,14,01,2017,00,00*4D
$GPTXT,01,01,01,ANTENNA OK*35
$GNGGA,014313.000,2253.7213,N,11350.7011,E,1,13,1.1,40.2,M,0.0,M,,*42
$GNGLL,2253.7213,N,11350.7011,E,014313.000,A,A*43
$GPGSA,A,3,02,05,13,30,15,24,20,29,,,,,1.9,1.1,1.6*30
$BDGSA,A,3,01,03,04,08,12,,,,,,,,1.9,1.1,1.6*21
$GPGSV,3,1,10,02,37,125,45,05,35,048,47,13,67,032,36,15,72,263,22*76
$GPGSV,3,2,10,18,07,282,,20,47,333,25,21,14,319,22,24,20,177,27*77
$GPGSV,3,3,10,29,47,267,26,30,08,049,39*7B
$BDGSV,2,1,06,01,49,130,42,03,62,189,42,04,32,111,42,08,61,175,43*6D
$BDGSV,2,2,06,12,40,184,41,14,,,19*5C
$GNRMC,014313.000,A,2253.7213,N,11350.7011,E,0.00,81.94,140117,,,A*42
$GNVTG,81.94,T,,M,0.00,N,0.00,K,A*17
$GNZDA,014313.000,14,01,2017,00,00*4C
$GPTXT,01,01,01,ANTENNA OK*35
$GNGGA,014314.000,2253.7213,N,11350.7011,E,1,13,1.1,40.2,M,0.0,M,,*45
$GNGLL,2253.7213,N,11350.7011,E,014314.000,A,A*44
$GPGSA,A,3,02,05,13,30,15,24,20,29,,,,,1.9,1.1,1.6*30
$BDGSA,A,3,01,03,04,08,12,,,,,,,,1.9,1.1,1.6*21
$GPGSV,3,1,10,02,37,125,45,05,35,048,47,13,67,032,37,15,72,263,22*77
$GPGSV,3,2,10,18,07,282,,20,47,333,25,21,14,319,22,24,20,177,27*77
$GPGSV,3,3,10,29,47,267,26,30,08,049,39*7B
$BDGSV,2,1,06,01,49,130,42,03,62,189,42,04,32,111,42,08,61,175,43*6D
$BDGSV,2,2,06,12,40,184,41,14,,,16*53
$GNRMC,014314.000,A,2253.7213,N,11350.7011,E,0.00,81.94,140117,,,A*45
$GNVTG,81.94,T,,M,0.00,N,0.00,K,A*17
$GNZDA,014314.000,14,01,2017,00,00*4B
$GPTXT,01,01,01,ANTENNA OK*35
$GNGGA,014315.000,2253.7213,N,11350.7011,E,1,13,1.1,40.2,M,0.0,M,,*44
$GNGLL,2253.7213,N,11350.7011,E,014315.000,A,A*45
$GPGSA,A,3,02,05,13,30,15,24,20,29,,,,,1.9,1.1,1.6*30
$BDGSA,A,3,01,03,04,08,12,,,,,,,,1.9,1.1,1.6*21
$GPGSV,3,1,10,02,37,125,45,05,35,048,47,13,67,032,37,15,72,263,22*77
$GPGSV,3,2,10,18,07,282,,20,47,333,13,21,14,319,22,24,20,177,27*72
$GPGSV,3,3,10,29,47,267,26,30,08,049,39*7B
$BDGSV,2,1,06,01,49,130,42,03,62,189,42,04,32,111,42,08,61,175,43*6D
$BDGSV,2,2,06,12,40,184,42,14,,,16*50
$GNRMC,014315.000,A,2253.7213,N,11350.7011,E,0.00,81.94,140117,,,A*44
$GNVTG,81.94,T,,M,0.00,N,0.00,K,A*17
$GNZDA,014315.000,14,01,2017,00,00*4A
$GPTXT,01,01,01,ANTENNA OK*35
$GNGGA,014316.000,2253.7213,N,11350.7011,E,1,13,1.1,40.2,M,0.0,M,,*47
$GNGLL,2253.7213,N,11350.7011,E,014316.000,A,A*46
$GPGSA,A,3,02,05,13,30,15,24,20,29,,,,,1.9,1.1,1.6*30
$BDGSA,A,3,01,03,04,08,12,,,,,,,,1.9,1.1,1.6*21
$GPGSV,3,1,10,02,37,125,44,05,35,048,47,13,67,032,37,15,72,263,22*76
$GPGSV,3,2,10,18,07,282,,20,47,333,13,21,14,319,22,24,20,177,27*72
$GPGSV,3,3,10,29,47,267,24,30,08,049,39*79
$BDGSV,2,1,06,01,49,130,42,03,62,189,42,04,32,111,42,08,61,175,42*6C
$BDGSV,2,2,06,12,40,184,42,14,,,16*50
$GNRMC,014316.000,A,2253.7213,N,11350.7011,E,0.00,81.94,140117,,,A*47
$GNVTG,81.94,T,,M,0.00,N,0.00,K,A*17
$GNZDA,014316.000,14,01,2017,00,00*49
$GPTXT,01,01,01,ANTENNA OK*35
$GNGGA,014317.000,2253.7213,N,11350.7011,E,1,13,1.1,40.2,M,0.0,M,,*46
$GNGLL,2253.7213,N,11350.7011,E,014317.000,A,A*47
$GPGSA,A,3,02,05,13,30,15,24,20,29,,,,,1.9,1.1,1.6*30
$BDGSA,A,3,01,03,04,08,12,,,,,,,,1.9,1.1,1.6*21
$GPGSV,3,1,10,02,37,125,44,05,35,048,47,13,67,032,37,15,72,263,22*76
$GPGSV,3,2,10,18,07,282,,20,47,333,13,21,14,319,22,24,20,177,27*72
$GPGSV,3,3,10,29,47,267,24,30,08,049,40*77
$BDGSV,2,1,06,01,49,130,42,03,62,189,42,04,32,111,42,08,61,175,42*6C
$BDGSV,2,2,06,12,40,184,41,14,,,16*53
$GNRMC,014317.000,A,2253.7213,N,11350.7011,E,0.00,81.94,140117,,,A*46
$GNVTG,81.94,T,,M,0.00,N,0.00,K,A*17
$GNZDA,014317.000,14,01,2017,00,00*48
$GPTXT,01,01,01,ANTENNA OK*35
$GNGGA,014318.000,2253.7213,N,11350.7011,E,1,13,1.1,40.2,M,0.0,M,,*49
$GNGLL,2253.7213,N,11350.7011,E,014318.000,A,A*48
$GPGSA,A,3,02,05,13,30,15,24,20,29,,,,,1.9,1.1,1.6*30
$BDGSA,A,3,01,03,04,08,12,,,,,,,,1.9,1.1,1.6*21
$GPGSV,3,1,10,02,37,125,44,05,35,048,47,13,67,032,37,15,72,263,22*76
$GPGSV,3,2,10,18,07,282,,20,47,333,13,21,14,319,21,24,20,177,28*7E
$GPGSV,3,3,10,29,47,267,24,30,08,049,40*77
$BDGSV,2,1,06,01,49,130,42,03,62,189,42,04,32,111,42,08,61,175,42*6C
$BDGSV,2,2,06,12,40,184,41,14,,,16*53
$GNRMC,014318.000,A,2253.7213,N,11350.7011,E,0.00,81.94,140117,,,A*49
$GNVTG,81.94,T,,M,0.00,N,0.00,K,A*17
$GNZDA,014318.000,14,01,2017,00,00*47
$GPTXT,01,01,01,ANTENNA OK*35
$GNGGA,014319.000,2253.7213,N,11350.7011,E,1,13,1.1,40.2,M,0.0,M,,*48
$GNGLL,2253.7213,N,11350.7011,E,014319.000,A,A*49
$GPGSA,A,3,02,05,13,30,15,24,20,29,,,,,1.9,1.1,1.6*30
$BDGSA,A,3,01,03,04,08,12,,,,,,,,1.9,1.1,1.6*21
$GPGSV,3,1,10,02,37,125,44,05,35,048,47,13,67,032,36,15,72,263,21*74
$GPGSV,3,2,10,18,07,282,,20,47,333,13,21,14,319,21,24,20,177,28*7E
$GPGSV,3,3,10,29,47,267,26,30,08,049,40*75
$BDGSV,2,1,06,01,49,130,42,03,62,189,42,04,32,111,42,08,61,175,43*6D
$BDGSV,2,2,06,12,40,184,41,14,,,16*53
$GNRMC,014319.000,A,2253.7213,N,11350.7011,E,0.00,81.94,140117,,,A*48
$GNVTG,81.94,T,,M,0.00,N,0.00,K,A*17
$GNZDA,014319.000,14,01,2017,00,00*46
$GPTXT,01,01,01,ANTENNA OK*35
$GNGGA,014320.000,2253.7213,N,11350.7011,E,1,13,1.1,40.2,M,0.0,M,,*42
$GNGLL,2253.7213,N,11350.7011,E,014320.000,A,A*43
$GPGSA,A,3,02,05,13,30,15,24,20,29,,,,,1.9,1.1,1.6*30
$BDGSA,A,3,01,03,04,08,12,,,,,,,,1.9,1.1,1.6*21
$GPGSV,3,1,10,02,37,125,44,05,35,048,47,13,67,032,36,15,72,263,21*74
$GPGSV,3,2,10,18,07,282,,20,47,333,13,21,14,319,21,24,20,177,28*7E
$GPGSV,3,3,10,29,47,267,26,30,08,049,40*75
$BDGSV,2,1,06,01,49,130,42,03,62,189,42,04,32,111,42,08,61,175,43*6D
$BDGSV,2,2,06,12,40,184,41,14,,,16*53
$GNRMC,014320.000,A,2253.7213,N,11350.7011,E,0.00,81.94,140117,,,A*42
$GNVTG,81.94,T,,M,0.00,N,0.00,K,A*17
$GNZDA,014320.000,14,01,2017,00,00*4C
$GPTXT,01,01,01,ANTENNA OK*35
$GNGGA,014321.000,2253.7213,N,11350.7011,E,1,13,1.1,40.2,M,0.0,M,,*43
$GNGLL,2253.7213,N,11350.7011,E,014321.000,A,A*42
$GPGSA,A,3,02,05,13,30,15,24,20,29,,,,,1.9,1.1,1.6*30
$BDGSA,A,3,01,03,04,08,12,,,,,,,,1.9,1.1,1.6*21
$GPGSV,3,1,10,02,37,125,45,05,35,048,47,13,67,032,36,15,72,263,21*75
$GPGSV,3,2,10,18,07,282,,20,47,333,17,21,14,319,21,24,20,177,28*7A
$GPGSV,3,3,10,29,47,267,26,30,08,049,40*75
$BDGSV,2,1,06,01,49,130,42,03,62,189,42,04,32,111,42,08,61,175,42*6C
$BDGSV,2,2,06,12,40,184,41,14,,,16*53
$GNRMC,014321.000,A,2253.7213,N,11350.7011,E,0.00,81.94,140117,,,A*43
$GNVTG,81.94,T,,M,0.00,N,0.00,K,A*17
$GNZDA,014321.000,14,01,2017,00,00*4D
$GPTXT,01,01,01,ANTENNA OK*35
$GNGGA,014322.000,2253.7213,N,11350.7011,E,1,13,1.1,40.2,M,0.0,M,,*40
$GNGLL,2253.7213,N,11350.7011,E,014322.000,A,A*41
$GPGSA,A,3,02,05,13,30,15,24,20,29,,,,,1.9,1.1,1.6*30
$BDGSA,A,3,01,03,04,08,12,,,,,,,,1.9,1.1,1.6*21
$GPGSV,3,1,10,02,37,125,45,05,35,048,47,13,67,032,36,15,72,263,21*75
$GPGSV,3,2,10,18,07,282,,20,47,334,17,21,14,319,21,24,20,177,29*7C
$GPGSV,3,3,10,29,47,267,26,30,08,049,40*75
$BDGSV,2,1,06,01,49,130,42,03,62,189,42,04,32,111,42,08,61,175,42*6C
$BDGSV,2,2,06,12,40,184,41,14,,,19*5C
$GNRMC,014322.000,A,2253.7213,N,11350.7011,E,0.00,81.94,140117,,,A*40
$GNVTG,81.94,T,,M,0.00,N,0.00,K,A*17
$GNZDA,014322.000,14,01,2017,00,00*4E
$GPTXT,01,01,01,ANTENNA OK*35
$GNGGA,014323.000,2253.7213,N,11350.7011,E,1,13,1.1,40.2,M,0.0,M,,*41
$GNGLL,2253.7213,N,11350.7011,E,014323.000,A,A*40
$GPGSA,A,3,02,05,13,30,15,24,20,29,,,,,1.9,1.1,1.6*30
$BDGSA,A,3,01,03,04,08,12,,,,,,,,1.9,1.1,1.6*21
$GPGSV,3,1,10,02,37,125,45,05,35,048,47,13,67,032,36,15,72,263,21*75
$GPGSV,3,2,10,18,07,282,,20,47,334,23,21,14,319,21,24,20,177,29*7B
$GPGSV,3,3,10,29,47,267,26,30,08,049,40*75
$BDGSV,2,1,06,01,49,130,42,03,62,189,42,04,32,111,42,08,61,175,42*6C
$BDGSV,2,2,06,12,40,184,41,14,,,19*5C
$GNRMC,014323.000,A,2253.7213,N,11350.7011,E,0.00,81.94,140117,,,A*41
$GNVTG,81.94,T,,M,0.00,N,0.00,K,A*17
$GNZDA,014323.000,14,01,2017,00,00*4F
$GPTXT,01,01,01,ANTENNA OK*35
$GNGGA,014324.000,2253.7213,N,11350.7011,E,1,13,1.1,40.2,M,0.0,M,,*46
$GNGLL,2253.7213,N,11350.7011,E,014324.000,A,A*47
$GPGSA,A,3,02,05,13,30,15,24,20,29,,,,,1.9,1.1,1.6*30
$BDGSA,A,3,01,03,04,08,12,,,,,,,,1.9,1.1,1.6*21
$GPGSV,3,1,10,02,37,125,46,05,35,048,47,13,67,032,36,15,72,263,21*76
$GPGSV,3,2,10,18,07,282,,20,47,334,23,21,14,319,21,24,20,177,29*7B
$GPGSV,3,3,10,29,47,267,26,30,08,049,40*75
$BDGSV,2,1,06,01,49,130,42,03,62,189,42,04,32,111,42,08,61,175,43*6D
$BDGSV,2,2,06,12,40,184,41,14,,,19*5C
$GNRMC,014324.000,A,2253.7213,N,11350.7011,E,0.00,81.94,140117,,,A*46
$GNVTG,81.94,T,,M,0.00,N,0.00,K,A*17
$GNZDA,014324.000,14,01,2017,00,00*48
$GPTXT,01,01,01,ANTENNA OK*35
$GNGGA,014325.000,2253.7213,N,11350.7011,E,1,13,1.1,40.2,M,0.0,M,,*47
$GNGLL,2253.7213,N,11350.7011,E,014325.000,A,A*46
$GPGSA,A,3,02,05,13,30,15,24,20,29,,,,,1.9,1.1,1.6*30
$BDGSA,A,3,01,03,04,08,12,,,,,,,,1.9,1.1,1.6*21
$GPGSV,3,1,10,02,37,125,46,05,35,048,47,13,67,032,36,15,72,263,21*76
$GPGSV,3,2,10,18,07,282,,20,47,334,23,21,14,319,21,24,20,177,29*7B
$GPGSV,3,3,10,29,47,267,24,30,08,049,41*76
$BDGSV,2,1,06,01,49,130,42,03,62,189,42,04,32,111,42,08,61,175,43*6D
$BDGSV,2,2,06,12,40,184,41,14,,,19*5C
$GNRMC,014325.000,A,2253.7213,N,11350.7011,E,0.00,81.94,140117,,,A*47
$GNVTG,81.94,T,,M,0.00,N,0.00,K,A*17
$GNZDA,014325.000,14,01,2017,00,00*49
$GPTXT,01,01,01,ANTENNA OK*35
$GNGGA,014326.000,2253.7213,N,11350.7011,E,1,13,1.1,40.2,M,0.0,M,,*44
$GNGLL,2253.7213,N,11350.7011,E,014326.000,A,A*45
$GPGSA,A,3,02,05,13,30,15,24,20,29,,,,,1.9,1.1,1.6*30
$BDGSA,A,3,01,03,04,08,12,,,,,,,,1.9,1.1,1.6*21
$GPGSV,3,1,10,02,37,125,45,05,35,048,47,13,67,031,36,15,72,263,21*76
$GPGSV,3,2,10,18,07,282,,20,47,334,23,21,14,319,21,24,20,177,29*7B
$GPGSV,3,3,10,29,47,267,24,30,08,049,41*76
$BDGSV,2,1,06,01,49,130,42,03,62,189,42,04,32,111,42,08,61,175,43*6D
$BDGSV,2,2,06,12,40,184,41,14,,,19*5C
$GNRMC,014326.000,A,2253.7213,N,11350.7011,E,0.00,81.94,140117,,,A*44
$GNVTG,81.94,T,,M,0.00,N,0.00,K,A*17
$GNZDA,014326.000,14,01,2017,00,00*4A
$GPTXT,01,01,01,ANTENNA OK*35
$GNGGA,014327.000,2253.7213,N,11350.7011,E,1,13,1.1,40.2,M,0.0,M,,*45
$GNGLL,2253.7213,N,11350.7011,E,014327.000,A,A*44
$GPGSA,A,3,02,05,13,30,15,24,20,29,,,,,1.9,1.1,1.6*30
$BDGSA,A,3,01,03,04,08,12,,,,,,,,1.9,1.1,1.6*21
$GPGSV,3,1,10,02,37,125,45,05,35,048,47,13,67,031,36,15,72,263,21*76
$GPGSV,3,2,10,18,07,282,,20,47,334,25,21,14,319,21,24,20,177,30*75
$GPGSV,3,3,10,29,47,267,24,30,08,049,41*76
$BDGSV,2,1,06,01,49,130,42,03,62,189,42,04,32,111,42,08,61,175,43*6D
$BDGSV,2,2,06,12,40,184,41,14,,,19*5C
$GNRMC,014327.000,A,2253.7213,N,11350.7011,E,0.00,81.94,140117,,,A*45
$GNVTG,81.94,T,,M,0.00,N,0.00,K,A*17
$GNZDA,014327.000,14,01,2017,00,00*4B
$GPTXT,01,01,01,ANTENNA OK*35
$GNGGA,014328.000,2253.7213,N,11350.7011,E,1,13,1.1,40.2,M,0.0,M,,*4A
$GNGLL,2253.7213,N,11350.7011,E,014328.000,A,A*4B
$GPGSA,A,3,02,05,13,30,15,24,20,29,,,,,1.9,1.1,1.6*30
$BDGSA,A,3,01,03,04,08,12,,,,,,,,1.9,1.1,1.6*21
$GPGSV,3,1,10,02,37,125,46,05,35,048,47,13,67,031,37,15,72,263,21*74
$GPGSV,3,2,10,18,07,282,,20,47,334,25,21,14,319,21,24,20,177,30*75
$GPGSV,3,3,10,29,47,267,24,30,08,049,41*76
$BDGSV,2,1,06,01,49,130,42,03,62,189,42,04,32,111,42,08,61,175,43*6D
$BDGSV,2,2,06,12,40,184,41,14,,,19*5C
$GNRMC,014328.000,A,2253.7213,N,11350.7011,E,0.00,81.94,140117,,,A*4A
$GNVTG,81.94,T,,M,0.00,N,0.00,K,A*17
$GNZDA,014328.000,14,01,2017,00,00*44
$GPTXT,01,01,01,ANTENNA OK*35
$GNGGA,014329.000,2253.7213,N,11350.7011,E,1,13,1.1,40.2,M,0.0,M,,*4B
$GNGLL,2253.7213,N,11350.7011,E,014329.000,A,A*4A
$GPGSA,A,3,02,05,13,30,15,24,20,29,,,,,1.9,1.1,1.6*30
$BDGSA,A,3,01,03,04,08,12,,,,,,,,1.9,1.1,1.6*21
$GPGSV,3,1,10,02,37,125,46,05,35,048,47,13,67,031,37,15,72,263,22*77
$GPGSV,3,2,10,18,07,282,,20,47,334,25,21,14,319,21,24,20,177,30*75
$GPGSV,3,3,10,29,47,267,18,30,08,049,41*79
$BDGSV,2,1,06,01,49,130,42,03,62,189,42,04,32,111,42,08,61,175,43*6D
$BDGSV,2,2,06,12,40,184,41,14,,,19*5C
$GNRMC,014329.000,A,2253.7213,N,11350.7011,E,0.00,81.94,140117,,,A*4B
$GNVTG,81.94,T,,M,0.00,N,0.00,K,A*17
$GNZDA,014329.000,14,01,2017,00,00*45
$GPTXT,01,01,01,ANTENNA OK*35
$GNGGA,014330.000,2253.7213,N,11350.7011,E,1,13,1.1,40.2,M,0.0,M,,*43
$GNGLL,2253.7213,N,11350.7011,E,014330.000,A,A*42
$GPGSA,A,3,02,05,13,30,15,24,20,29,,,,,1.9,1.1,1.6*30
$BDGSA,A,3,01,03,04,08,12,,,,,,,,1.9,1.1,1.6*21
$GPGSV,3,1,10,02,37,125,46,05,35,048,47,13,67,031,37,15,72,263,22*77
$GPGSV,3,2,10,18,07,282,,20,47,334,25,21,14,319,21,24,20,177,30*75
$GPGSV,3,3,10,29,47,267,18,30,08,049,41*79
$BDGSV,2,1,06,01,49,130,42,03,62,189,42,04,32,111,42,08,61,175,43*6D
$BDGSV,2,2,06,12,40,184,41,14,,,19*5C
$GNRMC,014330.000,A,2253.7213,N,11350.7011,E,0.00,81.94,140117,,,A*43
$GNVTG,81.94,T,,M,0.00,N,0.00,K,A*17
$GNZDA,014330.000,14,01,2017,00,00*4D
$GPTXT,01,01,01,ANTENNA OK*35
$GNGGA,014331.000,2253.7213,N,11350.7011,E,1,13,1.1,40.2,M,0.0,M,,*42
$GNGLL,2253.7213,N,11350.7011,E,014331.000,A,A*43
$GPGSA,A,3,02,05,13,30,15,24,20,29,,,,,1.9,1.1,1.6*30
$BDGSA,A,3,01,03,04,08,12,,,,,,,,1.9,1.1,1.6*21
$GPGSV,3,1,10,02,37,125,45,05,35,048,47,13,67,031,37,15,72,263,22*74
$GPGSV,3,2,10,18,07,282,,20,47,334,25,21,14,319,22,24,20,177,30*76
$GPGSV,3,3,10,29,47,267,18,30,08,049,41*79
$BDGSV,2,1,06,01,49,130,42,03,62,189,42,04,32,111,42,08,61,175,43*6D
$BDGSV,2,2,06,12,40,184,41,14,,,19*5C
$GNRMC,014331.000,A,2253.7213,N,11350.7011,E,0.00,81.94,140117,,,A*42
$GNVTG,81.94,T,,M,0.00,N,0.00,K,A*17
$GNZDA,014331.000,14,01,2017,00,00*4C
$GPTXT,01,01,01,ANTENNA OK*35
$GNGGA,014332.000,2253.7213,N,11350.7011,E,1,13,1.1,40.2,M,0.0,M,,*41
$GNGLL,2253.7213,N,11350.7011,E,014332.000,A,A*40
$GPGSA,A,3,02,05,13,30,15,24,20,29,,,,,1.9,1.1,1.6*30
$BDGSA,A,3,01,03,04,08,12,,,,,,,,1.9,1.1,1.6*21
$GPGSV,3,1,10,02,37,125,45,05,35,048,47,13,67,031,37,15,72,263,22*74
$GPGSV,3,2,10,18,07,282,,20,47,334,25,21,14,319,22,24,20,177,29*7E
$GPGSV,3,3,10,29,47,267,22,30,08,049,41*70
$BDGSV,2,1,06,01,49,130,42,03,62,189,42,04,32,111,42,08,61,175,43*6D
$BDGSV,2,2,06,12,40,184,41,14,,,19*5C
$GNRMC,014332.000,A,2253.7213,N,11350.7011,E,0.00,81.94,140117,,,A*41
$GNVTG,81.94,T,,M,0.00,N,0.00,K,A*17
$GNZDA,014332.000,14,01,2017,00,00*4F
$GPTXT,01,01,01,ANTENNA OK*35
$GNGGA,014333.000,2253.7213,N,11350.7011,E,1,13,1.1,40.2,M,0.0,M,,*40
$GNGLL,2253.7213,N,11350.7011,E,014333.000,A,A*41
$GPGSA,A,3,02,05,13,30,15,24,20,29,,,,,1.9,1.1,1.6*30
$BDGSA,A,3,01,03,04,08,12,,,,,,,,1.9,1.1,1.6*21
$GPGSV,3,1,10,02,37,125,45,05,35,048,47,13,67,031,38,15,72,263,22*7B
$GPGSV,3,2,10,18,07,282,,20,47,334,24,21,14,319,26,24,20,177,29*7B
$GPGSV,3,3,10,29,47,267,22,30,08,049,41*70
$BDGSV,2,1,06,01,49,130,42,03,62,189,42,04,32,111,42,08,61,175,43*6D
$BDGSV,2,2,06,12,40,184,41,14,,,16*53
$GNRMC,014333.000,A,2253.7213,N,11350.7011,E,0.00,81.94,140117,,,A*40
$GNVTG,81.94,T,,M,0.00,N,0.00,K,A*17
$GNZDA,014333.000,14,01,2017,00,00*4E
$GPTXT,01,01,01,ANTENNA OK*35
$GNGGA,014334.000,2253.7213,N,11350.7011,E,1,13,1.1,40.2,M,0.0,M,,*47
$GNGLL,2253.7213,N,11350.7011,E,014334.000,A,A*46
$GPGSA,A,3,02,05,13,30,15,24,20,29,,,,,1.9,1.1,1.6*30
$BDGSA,A,3,01,03,04,08,12,,,,,,,,1.9,1.1,1.6*21
$GPGSV,3,1,10,02,37,125,45,05,35,048,48,13,67,031,38,15,72,263,22*74
$GPGSV,3,2,10,18,07,282,,20,47,334,24,21,14,319,26,24,20,177,29*7B
$GPGSV,3,3,10,29,47,267,22,30,08,049,41*70
$BDGSV,2,1,06,01,49,130,42,03,62,189,42,04,32,111,42,08,61,175,43*6D
$BDGSV,2,2,06,12,40,184,41,14,,,16*53
$GNRMC,014334.000,A,2253.7213,N,11350.7011,E,0.00,81.94,140117,,,A*47
$GNVTG,81.94,T,,M,0.00,N,0.00,K,A*17
$GNZDA,014334.000,14,01,2017,00,00*49
$GPTXT,01,01,01,ANTENNA OK*35
$GNGGA,014335.000,2253.7213,N,11350.7011,E,1,13,1.1,40.2,M,0.0,M,,*46
$GNGLL,2253.7213,N,11350.7011,E,014335.000,A,A*47
$GPGSA,A,3,02,05,13,30,15,24,20,29,,,,,1.9,1.1,1.6*30
$BDGSA,A,3,01,03,04,08,12,,,,,,,,1.9,1.1,1.6*21
$GPGSV,3,1,10,02,37,125,45,05,35,048,48,13,67,031,37,15,72,263,22*7B
$GPGSV,3,2,10,18,07,282,,20,47,334,24,21,14,319,28,24,20,177,29*75
$GPGSV,3,3,10,29,47,267,22,30,08,049,41*70
$BDGSV,2,1,06,01,49,130,42,03,62,189,42,04,32,111,42,08,61,175,43*6D
$BDGSV,2,2,06,12,40,184,41,14,,,16*53
$GNRMC,014335.000,A,2253.7213,N,11350.7011,E,0.00,81.94,140117,,,A*46
$GNVTG,81.94,T,,M,0.00,N,0.00,K,A*17
$GNZDA,014335.000,14,01,2017,00,00*48
$GPTXT,01,01,01,ANTENNA OK*35
$GNGGA,014336.000,2253.7213,N,11350.7011,E,1,13,1.1,40.2,M,0.0,M,,*45
$GNGLL,2253.7213,N,11350.7011,E,014336.000,A,A*44
$GPGSA,A,3,02,05,13,30,15,24,20,29,,,,,1.9,1.1,1.6*30
$BDGSA,A,3,01,03,04,08,12,,,,,,,,1.9,1.1,1.6*21
$GPGSV,3,1,10,02,37,125,45,05,35,048,48,13,67,031,37,15,72,263,22*7B
$GPGSV,3,2,10,18,07,282,,20,47,334,24,21,14,319,28,24,20,177,29*75
$GPGSV,3,3,10,29,47,267,24,30,08,049,41*76
$BDGSV,2,1,05,01,49,130,42,03,62,189,42,04,32,111,42,08,61,175,43*6E
$BDGSV,2,2,05,12,40,184,41*52
$GNRMC,014336.000,A,2253.7213,N,11350.7011,E,0.00,81.94,140117,,,A*45
$GNVTG,81.94,T,,M,0.00,N,0.00,K,A*17
$GNZDA,014336.000,14,01,2017,00,00*4B
$GPTXT,01,01,01,ANTENNA OK*35
$GNGGA,014337.000,2253.7213,N,11350.7011,E,1,13,1.1,40.2,M,0.0,M,,*44
$GNGLL,2253.7213,N,11350.7011,E,014337.000,A,A*45
$GPGSA,A,3,02,05,13,30,15,24,20,29,,,,,1.9,1.1,1.6*30
$BDGSA,A,3,01,03,04,08,12,,,,,,,,1.9,1.1,1.6*21
$GPGSV,3,1,10,02,37,125,45,05,35,048,48,13,67,031,37,15,72,264,22*7C
$GPGSV,3,2,10,18,07,282,,20,47,334,24,21,14,319,28,24,20,177,30*7D
$GPGSV,3,3,10,29,47,267,24,30,08,049,41*76
$BDGSV,2,1,05,01,49,130,42,03,62,189,42,04,32,111,42,08,61,175,43*6E
$BDGSV,2,2,05,12,40,184,41*52
$GNRMC,014337.000,A,2253.7213,N,11350.7011,E,0.00,81.94,140117,,,A*44
$GNVTG,81.94,T,,M,0.00,N,0.00,K,A*17
$GNZDA,014337.000,14,01,2017,00,00*4A
$GPTXT,01,01,01,ANTENNA OK*35
$GNGGA,014338.000,2253.7213,N,11350.7011,E,1,13,1.1,40.2,M,0.0,M,,*4B
$GNGLL,2253.7213,N,11350.7011,E,014338.000,A,A*4A
$GPGSA,A,3,02,05,13,30,15,24,20,29,,,,,1.9,1.1,1.6*30
$BDGSA,A,3,01,03,04,08,12,,,,,,,,1.9,1.1,1.6*21
$GPGSV,3,1,10,02,37,125,45,05,35,048,48,13,67,031,37,15,72,264,22*7C
$GPGSV,3,2,10,18,07,282,,20,47,334,24,21,14,319,28,24,20,177,30*7D
$GPGSV,3,3,10,29,47,267,27,30,08,049,41*75
$BDGSV,2,1,05,01,49,130,42,03,62,189,42,04,32,111,42,08,61,175,43*6E
$BDGSV,2,2,05,12,40,184,41*52
$GNRMC,014338.000,A,2253.7213,N,11350.7011,E,0.00,81.94,140117,,,A*4B
$GNVTG,81.94,T,,M,0.00,N,0.00,K,A*17
$GNZDA,014338.000,14,01,2017,00,00*45
$GPTXT,01,01,01,ANTENNA OK*35
$GNGGA,014339.000,2253.7213,N,11350.7011,E,1,13,1.1,40.2,M,0.0,M,,*4A
$GNGLL,2253.7213,N,11350.7011,E,014339.000,A,A*4B
$GPGSA,A,3,02,05,13,30,15,24,20,29,,,,,1.9,1.1,1.6*30
$BDGSA,A,3,01,03,04,08,12,,,,,,,,1.9,1.1,1.6*21
$GPGSV,3,1,10,02,37,125,45,05,35,048,48,13,67,031,37,15,72,264,22*7C
$GPGSV,3,2,10,18,07,282,,20,47,334,24,21,14,319,28,24,20,177,30*7D
$GPGSV,3,3,10,29,47,267,27,30,08,049,41*75
$BDGSV,2,1,05,01,49,130,42,03,62,189,42,04,32,111,42,08,61,175,43*6E
$BDGSV,2,2,05,12,40,184,41*52
$GNRMC,014339.000,A,2253.7213,N,11350.7011,E,0.00,81.94,140117,,,A*4A
$GNVTG,81.94,T,,M,0.00,N,0.00,K,A*17
$GNZDA,014339.000,14,01,2017,00,00*44
$GPTXT,01,01,01,ANTENNA OK*35
$GNGGA,014340.000,2253.7213,N,11350.7011,E,1,13,1.1,40.2,M,0.0,M,,*44
$GNGLL,2253.7213,N,11350.7011,E,014340.000,A,A*45
$GPGSA,A,3,02,05,13,30,15,24,20,29,,,,,1.9,1.1,1.6*30
$BDGSA,A,3,01,03,04,08,12,,,,,,,,1.9,1.1,1.6*21
$GPGSV,3,1,10,02,37,125,45,05,35,048,48,13,67,031,36,15,72,264,22*7D
$GPGSV,3,2,10,18,07,282,,20,47,334,21,21,14,319,28,24,20,177,30*78
$GPGSV,3,3,10,29,47,267,27,30,08,049,42*76
$BDGSV,2,1,05,01,49,130,42,03,62,189,42,04,32,111,42,08,61,175,43*6E
$BDGSV,2,2,05,12,40,184,41*52
$GNRMC,014340.000,A,2253.7213,N,11350.7011,E,0.00,81.94,140117,,,A*44
$GNVTG,81.94,T,,M,0.00,N,0.00,K,A*17
$GNZDA,014340.000,14,01,2017,00,00*4A
$GPTXT,01,01,01,ANTENNA OK*35
$GNGGA,014341.000,2253.7213,N,11350.7011,E,1,13,1.1,40.2,M,0.0,M,,*45
$GNGLL,2253.7213,N,11350.7011,E,014341.000,A,A*44
$GPGSA,A,3,02,05,13,30,15,24,20,29,,,,,1.9,1.1,1.6*30
$BDGSA,A,3,01,03,04,08,12,,,,,,,,1.9,1.1,1.6*21
$GPGSV,3,1,10,02,37,125,45,05,35,048,47,13,67,031,36,15,72,264,22*72
$GPGSV,3,2,10,18,07,282,,20,47,334,21,21,14,319,27,24,20,177,30*77
$GPGSV,3,3,10,29,47,267,27,30,08,049,42*76
$BDGSV,2,1,05,01,49,130,42,03,62,189,42,04,32,111,42,08,61,175,43*6E
$BDGSV,2,2,05,12,40,184,41*52
$GNRMC,014341.000,A,2253.7213,N,11350.7011,E,0.00,81.94,140117,,,A*45
$GNVTG,81.94,T,,M,0.00,N,0.00,K,A*17
$GNZDA,014341.000,14,01,2017,00,00*4B
$GPTXT,01,01,01,ANTENNA OK*35
$GNGGA,014342.000,2253.7213,N,11350.7011,E,1,12,1.2,40.2,M,0.0,M,,*44
$GNGLL,2253.7213,N,11350.7011,E,014342.000,A,A*47
$GPGSA,A,3,02,05,13,30,15,24,29,,,,,,2.0,1.2,1.6*3B
$BDGSA,A,3,01,03,04,08,12,,,,,,,,2.0,1.2,1.6*28
$GPGSV,3,1,10,02,37,125,45,05,35,048,47,13,67,031,37,15,72,264,22*73
$GPGSV,3,2,10,18,07,282,,20,47,334,06,21,14,319,27,24,20,177,29*7A
$GPGSV,3,3,10,29,47,267,25,30,08,049,42*74
$BDGSV,2,1,05,01,49,130,42,03,62,189,42,04,32,111,42,08,61,175,43*6E
$BDGSV,2,2,05,12,40,184,41*52
$GNRMC,014342.000,A,2253.7213,N,11350.7011,E,0.00,81.94,140117,,,A*46
$GNVTG,81.94,T,,M,0.00,N,0.00,K,A*17
$GNZDA,014342.000,14,01,2017,00,00*48
$GPTXT,01,01,01,ANTENNA OK*35
$GNGGA,014343.000,2253.7213,N,11350.7011,E,1,12,1.2,40.2,M,0.0,M,,*45
$GNGLL,2253.7213,N,11350.7011,E,014343.000,A,A*46
$GPGSA,A,3,02,05,13,30,15,24,29,,,,,,2.0,1.2,1.6*3B
$BDGSA,A,3,01,03,04,08,12,,,,,,,,2.0,1.2,1.6*28
$GPGSV,3,1,10,02,37,125,45,05,35,048,47,13,67,031,37,15,72,264,22*73
$GPGSV,3,2,10,18,07,282,,20,47,334,06,21,14,319,27,24,20,177,29*7A
$GPGSV,3,3,10,29,47,267,25,30,08,049,42*74
$BDGSV,2,1,05,01,49,130,42,03,62,189,42,04,32,111,42,08,61,175,43*6E
$BDGSV,2,2,05,12,40,184,41*52
$GNRMC,014343.000,A,2253.7213,N,11350.7011,E,0.00,81.94,140117,,,A*47
$GNVTG,81.94,T,,M,0.00,N,0.00,K,A*17
$GNZDA,014343.000,14,01,2017,00,00*49
$GPTXT,01,01,01,ANTENNA OK*35
$GNGGA,014344.000,2253.7213,N,11350.7011,E,1,12,1.2,40.2,M,0.0,M,,*42
$GNGLL,2253.7213,N,11350.7011,E,014344.000,A,A*41
$GPGSA,A,3,02,05,13,30,15,24,29,,,,,,2.0,1.2,1.6*3B
$BDGSA,A,3,01,03,04,08,12,,,,,,,,2.0,1.2,1.6*28
$GPGSV,3,1,10,02,37,125,45,05,35,048,47,13,67,031,37,15,72,264,22*73
$GPGSV,3,2,10,18,07,282,,20,47,334,06,21,14,319,27,24,20,177,29*7A
$GPGSV,3,3,10,29,47,267,25,30,08,049,42*74
$BDGSV,2,1,05,01,49,130,42,03,62,189,42,04,32,111,42,08,61,175,43*6E
$BDGSV,2,2,05,12,40,184,41*52
$GNRMC,014344.000,A,2253.7213,N,11350.7011,E,0.00,81.94,140117,,,A*40
$GNVTG,81.94,T,,M,0.00,N,0.00,K,A*17
$GNZDA,014344.000,14,01,2017,00,00*4E
$GPTXT,01,01,01,ANTENNA OK*35
$GNGGA,014345.000,2253.7213,N,11350.7011,E,1,13,1.1,40.2,M,0.0,M,,*41
$GNGLL,2253.7213,N,11350.7011,E,014345.000,A,A*40
$GPGSA,A,3,02,05,13,30,15,24,20,29,,,,,1.9,1.1,1.6*30
$BDGSA,A,3,01,03,04,08,12,,,,,,,,1.9,1.1,1.6*21
$GPGSV,3,1,10,02,37,125,45,05,35,048,47,13,67,031,37,15,72,264,22*73
$GPGSV,3,2,10,18,07,282,,20,47,334,18,21,14,319,27,24,20,177,27*7B
$GPGSV,3,3,10,29,47,267,25,30,08,049,42*74
$BDGSV,2,1,05,01,49,130,42,03,62,189,42,04,32,111,42,08,61,175,43*6E
$BDGSV,2,2,05,12,40,184,41*52
$GNRMC,014345.000,A,2253.7213,N,11350.7011,E,0.00,81.94,140117,,,A*41
$GNVTG,81.94,T,,M,0.00,N,0.00,K,A*17
$GNZDA,014345.000,14,01,2017,00,00*4F
$GPTXT,01,01,01,ANTENNA OK*35
$GNGGA,014346.000,2253.7213,N,11350.7011,E,1,13,1.1,40.2,M,0.0,M,,*42
$GNGLL,2253.7213,N,11350.7011,E,014346.000,A,A*43
$GPGSA,A,3,02,05,13,30,15,24,20,29,,,,,1.9,1.1,1.6*30
$BDGSA,A,3,01,03,04,08,12,,,,,,,,1.9,1.1,1.6*21
$GPGSV,3,1,10,02,37,125,46,05,35,048,47,13,67,031,37,15,72,264,22*70
$GPGSV,3,2,10,18,07,282,,20,47,334,18,21,14,319,27,24,20,177,27*7B
$GPGSV,3,3,10,29,47,267,25,30,08,049,42*74
$BDGSV,2,1,05,01,49,130,42,03,62,189,42,04,32,111,42,08,61,175,43*6E
$BDGSV,2,2,05,12,40,184,41*52
$GNRMC,014346.000,A,2253.7213,N,11350.7011,E,0.00,81.94,140117,,,A*42
$GNVTG,81.94,T,,M,0.00,N,0.00,K,A*17
$GNZDA,014346.000,14,01,2017,00,00*4C
$GPTXT,01,01,01,ANTENNA OK*35
$GNGGA,014347.000,2253.7213,N,11350.7011,E,1,13,1.1,40.2,M,0.0,M,,*43
$GNGLL,2253.7213,N,11350.7011,E,014347.000,A,A*42
$GPGSA,A,3,02,05,13,30,15,24,20,29,,,,,1.9,1.1,1.6*30
$BDGSA,A,3,01,03,04,08,12,,,,,,,,1.9,1.1,1.6*21
$GPGSV,3,1,10,02,37,125,46,05,35,048,47,13,67,031,37,15,72,264,22*70
$GPGSV,3,2,10,18,07,282,,20,47,334,23,21,14,319,27,24,20,177,27*73
$GPGSV,3,3,10,29,47,267,25,30,08,049,42*74
$BDGSV,2,1,05,01,49,130,42,03,62,189,42,04,32,111,42,08,61,175,43*6E
$BDGSV,2,2,05,12,40,184,41*52
$GNRMC,014347.000,A,2253.7213,N,11350.7011,E,0.00,81.94,140117,,,A*43
$GNVTG,81.94,T,,M,0.00,N,0.00,K,A*17
$GNZDA,014347.000,14,01,2017,00,00*4D
$GPTXT,01,01,01,ANTENNA OK*35
$GNGGA,014348.000,2253.7213,N,11350.7011,E,1,13,1.1,40.2,M,0.0,M,,*4C
$GNGLL,2253.7213,N,11350.7011,E,014348.000,A,A*4D
$GPGSA,A,3,02,05,13,30,15,24,20,29,,,,,1.9,1.1,1.6*30
$BDGSA,A,3,01,03,04,08,12,,,,,,,,1.9,1.1,1.6*21
$GPGSV,3,1,10,02,37,125,46,05,35,048,47,13,67,031,37,15,72,264,22*70
$GPGSV,3,2,10,18,07,282,,20,47,334,23,21,14,319,26,24,20,177,27*72
$GPGSV,3,3,10,29,47,267,25,30,08,049,43*75
$BDGSV,2,1,05,01,49,130,42,03,62,189,42,04,32,111,42,08,61,175,43*6E
$BDGSV,2,2,05,12,40,184,40*53
$GNRMC,014348.000,A,2253.7213,N,11350.7011,E,0.00,81.94,140117,,,A*4C
$GNVTG,81.94,T,,M,0.00,N,0.00,K,A*17
$GNZDA,014348.000,14,01,2017,00,00*42
$GPTXT,01,01,01,ANTENNA OK*35
$GNGGA,014349.000,2253.7213,N,11350.7011,E,1,13,1.1,40.2,M,0.0,M,,*4D
$GNGLL,2253.7213,N,11350.7011,E,014349.000,A,A*4C
$GPGSA,A,3,02,05,13,30,15,24,20,29,,,,,1.9,1.1,1.6*30
$BDGSA,A,3,01,03,04,08,12,,,,,,,,1.9,1.1,1.6*21
$GPGSV,3,1,10,02,37,125,46,05,35,048,47,13,67,031,37,15,72,264,22*70
$GPGSV,3,2,10,18,07,282,,20,47,334,23,21,14,319,26,24,20,177,27*72
$GPGSV,3,3,10,29,47,267,25,30,08,049,43*75
$BDGSV,2,1,05,01,49,130,42,03,62,189,42,04,32,111,42,08,61,175,43*6E
$BDGSV,2,2,05,12,40,184,40*53
$GNRMC,014349.000,A,2253.7213,N,11350.7011,E,0.00,81.94,140117,,,A*4D
$GNVTG,81.94,T,,M,0.00,N,0.00,K,A*17
$GNZDA,014349.000,14,01,2017,00,00*43
$GPTXT,01,01,01,ANTENNA OK*35
$GNGGA,014350.000,2253.7213,N,11350.7011,E,1,13,1.1,40.2,M,0.0,M,,*45
$GNGLL,2253.7213,N,11350.7011,E,014350.000,A,A*44
$GPGSA,A,3,02,05,13,30,15,24,20,29,,,,,1.9,1.1,1.6*30
$BDGSA,A,3,01,03,04,08,12,,,,,,,,1.9,1.1,1.6*21
$GPGSV,3,1,10,02,37,125,46,05,35,048,47,13,67,031,37,15,72,264,22*70
$GPGSV,3,2,10,18,07,282,,20,47,334,23,21,14,319,26,24,20,177,27*72
$GPGSV,3,3,10,29,47,267,25,30,08,049,44*72
$BDGSV,2,1,05,01,49,130,42,03,62,189,42,04,32,111,42,08,61,175,43*6E
$BDGSV,2,2,05,12,40,184,40*53
$GNRMC,014350.000,A,2253.7213,N,11350.7011,E,0.00,81.94,140117,,,A*45
$GNVTG,81.94,T,,M,0.00,N,0.00,K,A*17
$GNZDA,014350.000,14,01,2017,00,00*4B
$GPTXT,01,01,01,ANTENNA OK*35
$GNGGA,014351.000,2253.7213,N,11350.7011,E,1,13,1.1,40.2,M,0.0,M,,*44
$GNGLL,2253.7213,N,11350.7011,E,014351.000,A,A*45
$GPGSA,A,3,02,05,13,30,15,24,20,29,,,,,1.9,1.1,1.6*30
$BDGSA,A,3,01,03,04,08,12,,,,,,,,1.9,1.1,1.6*21
$GPGSV,3,1,10,02,37,125,47,05,35,048,47,13,67,031,37,15,72,264,22*71
$GPGSV,3,2,10,18,07,282,,20,47,334,23,21,14,319,16,24,20,177,27*71
$GPGSV,3,3,10,29,47,267,24,30,08,049,44*73
$BDGSV,2,1,05,01,49,130,42,03,62,189,42,04,32,111,42,08,61,175,43*6E
$BDGSV,2,2,05,12,40,184,41*52
$GNRMC,014351.000,A,2253.7213,N,11350.7011,E,0.00,81.94,140117,,,A*44
$GNVTG,81.94,T,,M,0.00,N,0.00,K,A*17
$GNZDA,014351.000,14,01,2017,00,00*4A
$GPTXT,01,01,01,ANTENNA OK*35
$GNGGA,014352.000,2253.7213,N,11350.7011,E,1,13,1.1,40.2,M,0.0,M,,*47
$GNGLL,2253.7213,N,11350.7011,E,014352.000,A,A*46
$GPGSA,A,3,02,05,13,30,15,24,20,29,,,,,1.9,1.1,1.6*30
$BDGSA,A,3,01,03,04,08,12,,,,,,,,1.9,1.1,1.6*21
$GPGSV,3,1,10,02,37,125,47,05,35,048,47,13,67,031,36,15,72,264,22*70
$GPGSV,3,2,10,18,07,282,,20,47,334,24,21,14,319,16,24,20,177,26*77
$GPGSV,3,3,10,29,47,267,24,30,08,049,44*73
$BDGSV,2,1,05,01,49,130,42,03,62,189,42,04,32,111,42,08,61,175,43*6E
$BDGSV,2,2,05,12,40,184,41*52
$GNRMC,014352.000,A,2253.7213,N,11350.7011,E,0.00,81.94,140117,,,A*47
$GNVTG,81.94,T,,M,0.00,N,0.00,K,A*17
$GNZDA,014352.000,14,01,2017,00,00*49
$GPTXT,01,01,01,ANTENNA OK*35
$GNGGA,014353.000,2253.7213,N,11350.7011,E,1,13,1.1,40.2,M,0.0,M,,*46
$GNGLL,2253.7213,N,11350.7011,E,014353.000,A,A*47
$GPGSA,A,3,02,05,13,30,15,24,20,29,,,,,1.9,1.1,1.6*30
$BDGSA,A,3,01,03,04,08,12,,,,,,,,1.9,1.1,1.6*21
$GPGSV,3,1,10,02,37,125,47,05,35,048,47,13,67,031,36,15,72,264,22*70
$GPGSV,3,2,10,18,07,282,,20,47,334,24,21,14,319,16,24,20,177,26*77
$GPGSV,3,3,10,29,47,267,24,30,08,049,44*73
$BDGSV,2,1,05,01,49,130,42,03,62,189,42,04,32,111,42,08,61,175,43*6E
$BDGSV,2,2,05,12,40,184,40*53
$GNRMC,014353.000,A,2253.7213,N,11350.7011,E,0.00,81.94,140117,,,A*46
$GNVTG,81.94,T,,M,0.00,N,0.00,K,A*17
$GNZDA,014353.000,14,01,2017,00,00*48
$GPTXT,01,01,01,ANTENNA OK*35
$GNGGA,014354.000,2253.7213,N,11350.7011,E,1,13,1.1,40.2,M,0.0,M,,*41
$GNGLL,2253.7213,N,11350.7011,E,014354.000,A,A*40
$GPGSA,A,3,02,05,13,30,15,24,20,29,,,,,1.9,1.1,1.6*30
$BDGSA,A,3,01,03,04,08,12,,,,,,,,1.9,1.1,1.6*21
$GPGSV,3,1,10,02,37,125,47,05,35,048,46,13,67,031,37,15,72,264,22*70
$GPGSV,3,2,10,18,07,282,,20,47,334,24,21,14,319,16,24,20,177,26*77
$GPGSV,3,3,10,29,47,267,24,30,08,049,44*73
$BDGSV,2,1,05,01,49,130,42,03,62,189,42,04,32,111,42,08,61,175,43*6E
$BDGSV,2,2,05,12,40,184,40*53
$GNRMC,014354.000,A,2253.7213,N,11350.7011,E,0.00,81.94,140117,,,A*41
$GNVTG,81.94,T,,M,0.00,N,0.00,K,A*17
$GNZDA,014354.000,14,01,2017,00,00*4F
$GPTXT,01,01,01,ANTENNA OK*35
$GNGGA,014355.000,2253.7213,N,11350.7011,E,1,13,1.1,40.2,M,0.0,M,,*40
$GNGLL,2253.7213,N,11350.7011,E,014355.000,A,A*41
$GPGSA,A,3,02,05,13,30,15,24,20,29,,,,,1.9,1.1,1.6*30
$BDGSA,A,3,01,03,04,08,12,,,,,,,,1.9,1.1,1.6*21
$GPGSV,3,1,10,02,37,125,47,05,35,048,46,13,67,031,37,15,72,264,22*70
$GPGSV,3,2,10,18,07,282,,20,47,334,24,21,14,319,16,24,20,177,26*77
$GPGSV,3,3,10,29,47,267,24,30,08,049,44*73
$BDGSV,2,1,05,01,49,130,42,03,62,189,42,04,32,111,42,08,61,175,43*6E
$BDGSV,2,2,05,12,40,184,40*53
$GNRMC,014355.000,A,2253.7213,N,11350.7011,E,0.00,81.94,140117,,,A*40
$GNVTG,81.94,T,,M,0.00,N,0.00,K,A*17
$GNZDA,014355.000,14,01,2017,00,00*4E
$GPTXT,01,01,01,ANTENNA OK*35
$GNGGA,014356.000,2253.7213,N,11350.7011,E,1,13,1.1,40.2,M,0.0,M,,*43
$GNGLL,2253.7213,N,11350.7011,E,014356.000,A,A*42
$GPGSA,A,3,02,05,13,30,15,24,20,29,,,,,1.9,1.1,1.6*30
$BDGSA,A,3,01,03,04,08,12,,,,,,,,1.9,1.1,1.6*21
$GPGSV,3,1,10,02,37,125,47,05,35,048,46,13,67,031,37,15,72,264,22*70
$GPGSV,3,2,10,18,07,282,,20,47,334,24,21,14,319,16,24,20,177,26*77
$GPGSV,3,3,10,29,47,267,24,30,08,049,44*73
$BDGSV,2,1,05,01,49,130,42,03,62,189,42,04,32,111,42,08,61,175,43*6E
$BDGSV,2,2,05,12,40,184,41*52
$GNRMC,014356.000,A,2253.7213,N,11350.7011,E,0.00,81.94,140117,,,A*43
$GNVTG,81.94,T,,M,0.00,N,0.00,K,A*17
$GNZDA,014356.000,14,01,2017,00,00*4D
$GPTXT,01,01,01,ANTENNA OK*35
$GNGGA,014357.000,2253.7213,N,11350.7011,E,1,13,1.1,40.2,M,0.0,M,,*42
$GNGLL,2253.7213,N,11350.7011,E,014357.000,A,A*43
$GPGSA,A,3,02,05,13,30,15,24,20,29,,,,,1.9,1.1,1.6*30
$BDGSA,A,3,01,03,04,08,12,,,,,,,,1.9,1.1,1.6*21
$GPGSV,3,1,10,02,37,125,47,05,35,048,46,13,67,031,37,15,72,264,22*70
$GPGSV,3,2,10,18,07,282,,20,47,334,21,21,14,319,16,24,20,177,26*72
$GPGSV,3,3,10,29,47,267,24,30,08,049,44*73
$BDGSV,2,1,05,01,49,130,42,03,62,189,42,04,32,111,42,08,61,175,43*6E
$BDGSV,2,2,05,12,40,184,41*52
$GNRMC,014357.000,A,2253.7213,N,11350.7011,E,0.00,81.94,140117,,,A*42
$GNVTG,81.94,T,,M,0.00,N,0.00,K,A*17
$GNZDA,014357.000,14,01,2017,00,00*4C
$GPTXT,01,01,01,ANTENNA OK*35
$GNGGA,014358.000,2253.7213,N,11350.7011,E,1,13,1.1,40.2,M,0.0,M,,*4D
$GNGLL,2253.7213,N,11350.7011,E,014358.000,A,A*4C
$GPGSA,A,3,02,05,13,30,15,24,20,29,,,,,1.9,1.1,1.6*30
$BDGSA,A,3,01,03,04,08,12,,,,,,,,1.9,1.1,1.6*21
$GPGSV,3,1,10,02,37,125,47,05,35,048,46,13,66,031,37,15,72,264,22*71
$GPGSV,3,2,10,18,07,282,,20,47,334,21,21,14,319,16,24,20,177,26*72
$GPGSV,3,3,10,29,47,267,24,30,08,049,44*73
$BDGSV,2,1,05,01,49,130,42,03,62,189,42,04,32,111,42,08,61,175,43*6E
$BDGSV,2,2,05,12,40,184,40*53
$GNRMC,014358.000,A,2253.7213,N,11350.7011,E,0.00,81.94,140117,,,A*4D
$GNVTG,81.94,T,,M,0.00,N,0.00,K,A*17
$GNZDA,014358.000,14,01,2017,00,00*43
$GPTXT,01,01,01,ANTENNA OK*35
$GNGGA,014359.000,2253.7213,N,11350.7011,E,1,13,1.1,40.2,M,0.0,M,,*4C
$GNGLL,2253.7213,N,11350.7011,E,014359.000,A,A*4D
$GPGSA,A,3,02,05,13,30,15,24,20,29,,,,,1.9,1.1,1.6*30
$BDGSA,A,3,01,03,04,08,12,,,,,,,,1.9,1.1,1.6*21
$GPGSV,3,1,10,02,37,125,47,05,35,048,47,13,66,031,37,15,72,264,22*70
$GPGSV,3,2,10,18,07,282,,20,47,334,21,21,14,319,16,24,20,177,26*72
$GPGSV,3,3,10,29,47,267,24,30,08,049,44*73
$BDGSV,2,1,05,01,49,130,42,03,62,189,42,04,32,111,42,08,61,175,43*6E
$BDGSV,2,2,05,12,40,184,40*53
$GNRMC,014359.000,A,2253.7213,N,11350.7011,E,0.00,81.94,140117,,,A*4C
$GNVTG,81.94,T,,M,0.00,N,0.00,K,A*17
$GNZDA,014359.000,14,01,2017,00,00*42
$GPTXT,01,01,01,ANTENNA OK*35
$GNGGA,014400.000,2253.7213,N,11350.7011,E,1,13,1.1,40.2,M,0.0,M,,*47
$GNGLL,2253.7213,N,11350.7011,E,014400.000,A,A*46
$GPGSA,A,3,02,05,13,30,15,24,20,29,,,,,1.9,1.1,1.6*30
$BDGSA,A,3,01,03,04,08,12,,,,,,,,1.9,1.1,1.6*21
$GPGSV,3,1,10,02,37,125,47,05,35,048,47,13,66,031,37,15,72,264,22*70
$GPGSV,3,2,10,18,07,282,,20,47,334,21,21,14,319,16,24,20,177,26*72
$GPGSV,3,3,10,29,47,267,24,30,08,049,44*73
$BDGSV,2,1,05,01,49,130,42,03,62,189,42,04,32,111,42,08,61,175,43*6E
$BDGSV,2,2,05,12,39,184,40*5D
$GNRMC,014400.000,A,2253.7213,N,11350.7011,E,0.00,81.94,140117,,,A*47
$GNVTG,81.94,T,,M,0.00,N,0.00,K,A*17
$GNZDA,014400.000,14,01,2017,00,00*49
$GPTXT,01,01,01,ANTENNA OK*35
$GNGGA,014401.000,2253.7213,N,11350.7011,E,1,13,1.1,40.2,M,0.0,M,,*46
$GNGLL,2253.7213,N,11350.7011,E,014401.000,A,A*47
$GPGSA,A,3,02,05,13,30,15,24,20,29,,,,,1.9,1.1,1.6*30
$BDGSA,A,3,01,03,04,08,12,,,,,,,,1.9,1.1,1.6*21
$GPGSV,3,1,10,02,37,125,46,05,35,048,47,13,66,031,37,15,72,264,22*71
$GPGSV,3,2,10,18,07,282,,20,47,334,21,21,14,319,16,24,21,177,26*73
$GPGSV,3,3,10,29,47,267,24,30,08,049,44*73
$BDGSV,2,1,05,01,49,130,42,03,62,189,42,04,32,111,42,08,61,175,43*6E
$BDGSV,2,2,05,12,39,184,40*5D
$GNRMC,014401.000,A,2253.7213,N,11350.7011,E,0.00,81.94,140117,,,A*46
$GNVTG,81.94,T,,M,0.00,N,0.00,K,A*17
$GNZDA,014401.000,14,01,2017,00,00*48
$GPTXT,01,01,01,ANTENNA OK*35
$GNGGA,014402.000,2253.7213,N,11350.7011,E,1,13,1.1,40.2,M,0.0,M,,*45
$GNGLL,2253.7213,N,11350.7011,E,014402.000,A,A*44
$GPGSA,A,3,02,05,13,30,15,24,20,29,,,,,1.9,1.1,1.6*30
$BDGSA,A,3,01,03,04,08,12,,,,,,,,1.9,1.1,1.6*21
$GPGSV,3,1,10,02,37,125,46,05,35,048,46,13,66,031,37,15,72,264,22*70
$GPGSV,3,2,10,18,07,282,,20,47,334,23,21,14,319,16,24,21,177,26*71
$GPGSV,3,3,10,29,47,267,23,30,08,049,44*74
$BDGSV,2,1,06,01,49,130,42,03,62,189,42,04,32,111,42,07,,,28*5B
$BDGSV,2,2,06,08,61,175,43,12,39,184,40*65
$GNRMC,014402.000,A,2253.7213,N,11350.7011,E,0.00,81.94,140117,,,A*45
$GNVTG,81.94,T,,M,0.00,N,0.00,K,A*17
$GNZDA,014402.000,14,01,2017,00,00*4B
$GPTXT,01,01,01,ANTENNA OK*35
$GNGGA,014403.000,2253.7213,N,11350.7011,E,1,13,1.1,40.2,M,0.0,M,,*44
$GNGLL,2253.7213,N,11350.7011,E,014403.000,A,A*45
$GPGSA,A,3,02,05,13,30,15,24,20,29,,,,,1.9,1.1,1.6*30
$BDGSA,A,3,01,03,04,08,12,,,,,,,,1.9,1.1,1.6*21
$GPGSV,3,1,10,02,37,125,46,05,35,048,46,13,66,031,37,15,72,264,22*70
$GPGSV,3,2,10,18,07,282,,20,47,334,27,21,14,319,16,24,21,177,26*75
